,LOCCODE,PreK_Type,Borough,LocName,NOTE,phone,address,Postcode,Day_Length,Seats,X,Y,Email,Website,MEALS,INDOOR_OUTDOOR,EXTENDED_DAY,SEMS_CODE,Latitude,Longitude,Community Board,Council District ,Census Tract,BIN,BBL,NTA
0,K001,DOE,K,P.S. 001 The Bergen,,718-567-7661,309 47 St,11220,1,125,980985,175780,aramos4@schools.nyc.gov,http://schools.nyc.gov/schoolportals/15/k001,2,3,3,15K001,40.649042,-74.012289,7,38,80,3011821.0,3007550022.0,Sunset Park West                                                           
1,K003,DOE,K,P.S. 003 The Bedford Village,,718-622-2960,50 Jefferson Ave,11216,1,90,996604,187904,kbeeche@schools.nyc.gov,http://schools.nyc.gov/schoolportals/13/k003,2,3,3,13K003,40.682663,-73.955338,3,36,227,3057406.0,3019980001.0,Clinton Hill                                                               
2,K005,DOE,K,P.S. 005 Dr. Ronald Mcnair,,718-574-2333,820 Hancock St,11233,1,36,1005773,189031,lgates@schools.nyc.gov,http://schools.nyc.gov/schoolportals/16/k005,2,3,3,16K005,40.685695,-73.922463,3,41,377,3039906.0,3014900001.0,Stuyvesant Heights                                                         
3,K007,DOE,K,P.S. 007 Abraham Lincoln,,718-647-3600,858 Jamaica Ave,11208,1,36,1019458,190490,cnoel@schools.nyc.gov,http://schools.nyc.gov/schoolportals/19/k007,5,9,3,19K007,40.689696999999995,-73.873109,5,37,118201,3090998.0,3041060039.0,Cypress Hills-City Line                                                    
4,K009,DOE,K,P.S. 009 Teunis G Bergen,,718-638-3260,80 Underhill Ave,11238,1,90,993700,186368,sdavila@schools.nyc.gov,http://ps9brooklyn.org,2,3,3,13K009,40.678297,-73.965541,8,35,205,3028204.0,3011450026.0,Prospect Heights                                                           
5,K011,DOE,K,P.S. 011 Purvis J Behan,,718-638-2661,419 Waverly Ave,11238,1,72,993685,189033,awright3@schools.nyc.gov,http://schools.nyc.gov/schoolportals/13/k011,2,3,3,13K011,40.685491,-73.966291,2,35,199,3332865.0,3019620010.0,Clinton Hill                                                               
6,K012,DOE,K,Dr. Jacqueline Peek - Davis School,,718-953-4569,430 Howard Ave,11233,1,72,1006488,184472,gthom2@schools.nyc.gov,http://schools.nyc.gov/schoolportals/17/k012,2,3,3,17K012,40.673072999999995,-73.91959399999999,16,41,363,3039174.0,3014570032.0,Ocean Hill                                                                 
7,K013,DOE,K,P.S. 013 Roberto Clemente,,718-498-3717,557 Pennsylvania Ave,11207,1,36,1013831,181130,mcameron2@schools.nyc.gov,http://schools.nyc.gov/schoolportals/19/k013,2,3,3,19K013,40.663672999999996,-73.893754,5,42,1126,3085070.0,3038230001.0,East New York (Pennsylvania Ave)                                           
8,K015,DOE,K,P.S. 015 Patrick F Daly,,718-330-9280,71 Sullivan St,11231,1,84,981053,185943,pwyns@schools.nyc.gov,http://ps15patrickfdaly.org,3,3,1,15K015,40.677343,-74.011558,6,38,53,3008585.0,3005660001.0,Carroll Gardens-Columbia Street-Red Hook                                   
9,K016,DOE,K,P.S. 016 Leonard Dunkly,,718-782-5352,157 Wilson St,11211,1,72,994790,196466,mrenny@schools.nyc.gov,http://schools.nyc.gov/schoolportals/14/k016,2,3,3,14K016,40.706022999999995,-73.961476,1,33,535,3059906.0,3021770001.0,Williamsburg                                                               
10,K017,DOE,K,P.S. 017 Henry D Woodworth,,718-387-2929,208 North 5 St,11211,1,28,996201,199850,rmarchi@schools.nyc.gov,http://schools.nyc.gov/schoolportals/14/k017,2,3,3,14K017,40.715351,-73.956716,1,34,519,3062337.0,3023450001.0,North Side-South Side                                                      
11,K018,DOE,K,P.S. 018 Edward Bush,,718-387-3241,101 Maujer St,11206,1,36,998970,198249,aalexan4@schools.nyc.gov,http://schools.nyc.gov/schoolportals/14/k018,2,3,3,14K018,40.710609000000005,-73.946977,1,34,503,3069559.0,3027870001.0,East Williamsburg                                                          
12,K020,DOE,K,P.S. 020 Clinton Hill,,718-834-6744,225 Adelphi St,11205,1,54,992270,190980,lbarbera@schools.nyc.gov,http://schools.nyc.gov/schoolportals/13/k020,2,3,3,13K020,40.690765,-73.971376,2,35,183,3058531.0,3020910003.0,Fort Greene                                                                
13,K021,DOE,K,P.S. 021 Crispus Attucks,,718-493-9681,180 Chauncey St,11233,1,54,1004755,187212,lfrazie@schools.nyc.gov,http://schools.nyc.gov/schoolportals/16/k021,2,3,3,16K021,40.680727000000005,-73.926597,3,36,381,3047914.0,3016920017.0,Crown Heights North                                                        
14,K023,DOE,K,P.S. 023 Carter G Woodson,,718-387-0375,545 Willoughby Ave,11206,1,36,998775,192219,cnapoli@schools.nyc.gov,http://schools.nyc.gov/schoolportals/14/k023,2,3,3,14K023,40.69407,-73.94756,3,36,25901,3048818.0,3017590013.0,Bedford                                                                    
15,K024,DOE,K,P.S. 024,,718-832-9366,427 38 St,11232,1,36,982972,177112,rdubits@schools.nyc.gov,http://schools.nyc.gov/schoolportals/15/k024,3,3,3,15K024,40.652701,-74.004743,7,38,84,3346119.0,3007010001.0,Sunset Park West                                                           
16,K025,DOE,K,P.S. 025 Eubie Blake School,,718-574-2336,787 Lafayette Ave,11221,1,36,1000753,191155,acoley2@schools.nyc.gov,http://schools.nyc.gov/schoolportals/16/k025,3,3,3,16K025,40.691037,-73.941342,3,36,281,3049858.0,3017870014.0,Stuyvesant Heights                                                         
17,K026,DOE,K,P.S. 026 Jesse Owens,,718-919-5707,1014 Lafayette Ave,11221,1,18,1003289,191351,ccelest@schools.nyc.gov,http://schools.nyc.gov/schoolportals/16/k026,2,3,3,16K026,40.692126,-73.931731,3,36,291,3393805.0,3016160001.0,Stuyvesant Heights                                                         
18,K028,DOE,K,P.S. 028 The Warren Prep Academy,,718-467-2865,1001 Herkimer St,11233,1,18,1006403,186449,,http://schools.nyc.gov/schoolportals/16/k028,2,3,3,16K028,40.678049,-73.92031999999999,3,41,301,3042090.0,3015480019.0,Ocean Hill                                                                 
19,K029,DOE,K,P.S. 029 John M Harrigan,,718-330-9277,425 Henry St,11201,1,54,984883,189545,rfagin@schools.nyc.gov,http://schools.nyc.gov/schoolportals/15/k029,3,3,3,15K029,40.686951,-73.99806,6,39,45,3255627.0,3003110001.0,Carroll Gardens-Columbia Street-Red Hook                                   
20,K031,DOE,K,P.S. 031 Samuel F Dupont,,718-383-8998,75 Meserole Ave,11222,1,108,996979,204091,mscarla@schools.nyc.gov,http://schools.nyc.gov/schoolportals/14/k031,2,1,3,14K031,40.726587,-73.95427,1,33,561,3065299.0,3025950001.0,Greenpoint                                                                 
21,K032,DOE,K,P.S. 032 Samuel Mills Sprole,,718-222-6400,317 Hoyt St,11231,1,30,986550,187189,dflorio@schools.nyc.gov,http://schools.nyc.gov/schoolportals/15/k032,3,7,3,15K032,40.680445,-73.991949,6,39,75,3395587.0,3004370001.0,Carroll Gardens-Columbia Street-Red Hook                                   
22,K034,DOE,K,P.S. 034 Oliver H Perry,,718-389-5842,131 Norman Ave,11222,1,18,998184,203901,casselt@schools.nyc.gov,http://ps34.org,2,3,3,14K034,40.726135,-73.949649,1,33,573,3065733.0,3026220028.0,Greenpoint                                                                 
23,K038,DOE,K,P.S. 038 The Pacific,,718-330-9305,450 Pacific St,11217,1,126,988968,188868,yramire4@schools.nyc.gov,http://schools.nyc.gov/schoolportals/15/k038,3,3,1,15K038,40.685264000000004,-73.982639,2,33,39,3001183.0,3001910001.0,DUMBO-Vinegar Hill-Downtown Brooklyn-Boerum Hill                           
24,K039,DOE,K,P.S. 039 Henry Bristow,,718-330-9310,417 6 Ave,11215,1,36,988958,182905,,http://ps39.org,7,3,3,15K039,40.668915999999996,-73.983195,6,39,153,3021932.0,3010000001.0,Park Slope-Gowanus                                                         
25,K040,DOE,K,P.S. 040 George W Carver,,718-574-2353,265 Ralph Ave,11233,1,36,1005913,187134,lhibber@schools.nyc.gov,http://schools.nyc.gov/schoolportals/16/k040,3,3,3,16K040,40.680463,-73.922264,3,41,379,3041214.0,3015180001.0,Stuyvesant Heights                                                         
26,K044,DOE,K,P.S. 044 Marcus Garvey,,718-834-6939,432 Monroe St,11221,1,36,1000624,189327,rjames6@schools.nyc.gov,http://schools.nyc.gov/schoolportals/13/k044,2,3,3,13K044,40.686592,-73.940747,3,36,277,3051540.0,3018210001.0,Stuyvesant Heights                                                         
27,K045,DOE,K,P.S. 045 Horace E Greene,,718-642-5360,84 Schaefer St,11207,1,54,1009081,189447,tlott-davis@schools.nyc.gov,http://schools.nyc.gov/schoolportals/32/k045,2,3,3,32K045,40.686746,-73.91069300000001,4,37,401,3079428.0,3034270011.0,Bushwick South                                                             
28,K046,DOE,K,P.S. 046 Edward C Blum,,718-834-7694,100 Clermont Ave,11205,1,54,992161,192247,knicholson@schools.nyc.gov,http://schools.nyc.gov/schoolportals/13/k046,2,3,3,13K046,40.694633,-73.971165,2,35,187,3058088.0,3020450011.0,Fort Greene                                                                
29,K048,DOE,K,P.S. 048 Mapleton,,718-232-3873,6015 18 Ave,11204,1,18,987776,165729,jmagenta@schools.nyc.gov,http://schools.nyc.gov/schoolportals/20/k048,5,9,3,20K048,40.621871,-73.98739599999999,12,44,244,3132140.0,3055190001.0,Borough Park                                                               
30,K052,DOE,K,P.S. 052 Sheepshead Bay,,718-648-0882,2675 East 29 St,11235,1,72,1000858,153397,ralvare4@schools.nyc.gov,http://schools.nyc.gov/schoolportals/22/k052,3,3,3,22K052,40.587920000000004,-73.94053199999999,15,48,600,3205435.0,3074740001.0,Sheepshead Bay-Gerritsen Beach-Manhattan Beach                             
31,K054,DOE,K,P.S. 054 Samuel C Barnes,,718-834-6752,195 Sanford St,11205,1,46,997373,191615,lkhan@schools.nyc.gov,http://schools.nyc.gov/schoolportals/13/k054,2,3,3,13K054,40.693018,-73.953034,3,33,241,3049020.0,3017650015.0,Bedford                                                                    
32,K056,DOE,K,P.S. 056 Lewis H Latimer,,718-857-3149,170 Gates Ave,11238,1,18,995211,188782,dclarkj@schools.nyc.gov,http://schools.nyc.gov/schoolportals/13/k056,3,3,3,13K056,40.68505,-73.96065899999999,2,35,231,3056874.0,3019830010.0,Clinton Hill                                                               
33,K058,DOE,K,P.S. 058 The Carroll,,718-330-9322,330 Smith St,11231,1,54,985512,187171,kdellostritto2@schools.nyc.gov,http://schools.nyc.gov/schoolportals/15/k058,2,3,3,15K058,40.680149,-73.994938,6,39,77,3007547.0,3004490015.0,Carroll Gardens-Columbia Street-Red Hook                                   
34,K059,DOE,K,P.S. 059 William Floyd,,718-443-3600,211 Throop Ave,11206,1,36,999930,193336,dbest2@schools.nyc.gov,http://schools.nyc.gov/schoolportals/14/k059,3,3,3,14K059,40.696733,-73.943652,3,36,28502,3048546.0,3017490001.0,Stuyvesant Heights                                                         
35,K066,DOE,K,P.S. 66,,718-922-3505,845 East 96 St,11236,1,18,1010047,175668,ljackso17@schools.nyc.gov,http://schools.nyc.gov/schoolportals/18/k066,3,3,3,18K066,40.64883,-73.907774,18,42,970,3325418.0,3081290060.0,Canarsie                                                                   
36,K067,DOE,K,P.S. 067 Charles A Dorsey,,718-834-6756,51 Saint Edwards St,11205,1,18,990385,192610,gsolomon3@schools.nyc.gov,http://schools.nyc.gov/schoolportals/13/k067,3,3,3,13K067,40.695633,-73.978215,2,35,2901,3332507.0,3020390002.0,Fort Greene                                                                
37,K075,DOE,K,P.S. 075 Mayda Cortiella,,718-574-0244,95 Grv St,11221,1,54,1006134,191822,ywillia@schools.nyc.gov,http://schools.nyc.gov/schoolportals/32/k075,2,1,3,32K075,40.693313,-73.920666,4,34,419,3075879.0,3033140001.0,Bushwick South                                                             
38,K272,DOE,K,P.S. 272 Curtis Estabrook,,718-241-1300,101 - 24 Seaview Ave,11236,1,64,1015842,170884,hpinckney@schools.nyc.gov,http://schools.nyc.gov/schoolportals/18/k272,2,3,1,18K272,40.635915999999995,-73.88641199999999,18,46,1034,3235262.0,3083290250.0,Canarsie                                                                   
39,K081,DOE,K,P.S. 081 Thaddeus Stevens,,718-574-2365,990 Dekalb Ave,11221,1,36,1002239,191774,CAultBarker@schools.nyc.gov,http://schools.nyc.gov/schoolportals/16/k081,3,3,1,16K081,40.693160999999996,-73.935765,3,36,289,3043248.0,3016020019.0,Stuyvesant Heights                                                         
40,K084,DOE,K,P.S. 084 Jose De Diego,,718-384-8063,250 Berry St,11211,1,72,994436,199724,srodrig12@schools.nyc.gov,http://schools.nyc.gov/schoolportals/14/k084,2,3,3,14K084,40.714785,-73.96300000000001,1,34,551,3062766.0,3023910001.0,North Side-South Side                                                      
41,K089,DOE,K,P.S. 089 Cypress Hills,,718-964-1180,265 Warwick St,11207,1,18,1015669,186210,vrodrig4@schools.nyc.gov,http://schools.nyc.gov/schoolportals/19/k089,2,7,3,19K089,40.677696999999995,-73.88693599999999,5,37,1170,3397079.0,3039520047.0,East New York                                                              
42,K090,DOE,K,P.S. 90 Edna Cohen School,,718-787-3333,2840 West 12 St,11224,1,90,989819,149880,ghawkins@schools.nyc.gov,http://schools.nyc.gov/schoolportals/21/k090,3,3,3,21K090,40.578255,-73.979628,13,47,350,3196558.0,3072660040.0,West Brighton                                                              
43,K091,DOE,K,P.S. 091 The Albany Avenue School,,718-756-0243,532 Albany Ave,11203,1,72,1000834,180404,talleyn2@schools.nyc.gov,http://schools.nyc.gov/schoolportals/17/k091,2,3,3,17K091,40.661885999999996,-73.93994,9,41,806,3106599.0,3047940026.0,Prospect Lefferts Gardens-Wingate                                          
44,K092,DOE,K,P.S. 092 Adrian Hegeman,,718-462-2087,601 Parkside Ave,11226,1,54,996990,178353,drahmaa@schools.nyc.gov,http://schools.nyc.gov/schoolportals/17/k092,2,3,3,17K092,40.656046,-73.953742,9,40,802,3115866.0,3050490055.0,Prospect Lefferts Gardens-Wingate                                          
45,K093,DOE,K,P.S. 093 William H Prescott,,718-604-7363,31 New York Ave,11216,1,36,999087,186633,sphilip@schools.nyc.gov,http://schools.nyc.gov/schoolportals/13/k093,2,3,3,13K093,40.679097,-73.94684000000001,3,36,247,3053993.0,3018680007.0,Crown Heights North                                                        
46,K095,DOE,K,P.S. 095 The Gravesend,,718-449-5050,345 Van Sicklen St,11223,1,36,991224,156323,jndzibah@schools.nyc.gov,http://schools.nyc.gov/schoolportals/21/k095,2,3,3,21K095,40.595698,-73.97518000000001,15,47,398,3192661.0,3071230066.0,Gravesend                                                                  
47,K097,DOE,K,P.S. 97 The Highlawn,,718-372-1800,1855 Stillwell Ave,11223,1,54,988205,158329,icabello@schools.nyc.gov,http://schools.nyc.gov/schoolportals/21/k097,3,3,3,21K097,40.601433,-73.986139,11,47,404,3177680.0,3066670024.0,Bensonhurst East                                                           
48,K099,DOE,K,P.S. 099 Isaac Asimov,,718-338-9201,1120 East 10 St,11230,1,36,993722,165704,gpirrag@schools.nyc.gov,http://schools.nyc.gov/schoolportals/21/k099,2,1,3,21K099,40.621565000000004,-73.965595,12,44,454,3171478.0,3065350011.0,Ocean Parkway South                                                        
49,K100,DOE,K,P.S. 100 The Coney Island School,,718-266-9477,2951 West 3 St,11224,1,36,992317,149702,ctozzi@schools.nyc.gov,http://schools.nyc.gov/schoolportals/21/k100,2,3,3,21K100,40.57732,-73.971313,13,48,35602,3196595.0,3072810001.0,West Brighton                                                              
50,K106,DOE,K,P.S. 106 Edward Everett Hale,,718-574-0261,1328 Putnam Ave,11221,1,36,1008466,192021,rflores@schools.nyc.gov,http://schools.nyc.gov/schoolportals/32/k106,2,3,3,32K106,40.693878999999995,-73.91305600000001,4,37,435,3077286.0,3033770001.0,Bushwick North                                                             
51,K108,DOE,K,P.S. 108 Sal Abbracciamento,,718-277-7010,200 Linwood St,11208,1,108,1016343,187503,chahn3@schools.nyc.gov,http://schools.nyc.gov/schoolportals/19/k108,2,3,3,19K108,40.681267999999996,-73.884063,5,37,117202,3087131.0,3039260045.0,Cypress Hills-City Line                                                    
52,K109,DOE,K,P.S. 109,,718-693-3426,1001 East 45 St,11203,1,54,1002852,171265,dchase2@schools.nyc.gov,http://schools.nyc.gov/schoolportals/22/k109,2,3,3,22K109,40.636455,-73.933582,17,45,836,3114526.0,3050220002.0,East Flatbush-Farragut                                                     
53,K110,DOE,K,P.S. 110 The Monitor,,718-383-7600,124 Monitor St,11222,1,90,1000314,202930,tatson@schools.nyc.gov,http://ps110k.org,2,3,3,14K110,40.723896999999994,-73.942312,1,33,591,3067144.0,3026880042.0,Greenpoint                                                                 
54,K112,DOE,K,P.S. 112 Lefferts Park,,718-232-0685,7301 15 Ave,11228,1,20,983812,164596,LVerdem@schools.nyc.gov,http://schools.nyc.gov/schoolportals/20/k112,5,9,3,20K112,40.618718,-74.001898,11,43,188,3253521.0,3062020006.0,Bensonhurst West                                                           
55,K114,DOE,K,P.S. 114 Ryder Elementary,,718-257-4428,1077 Remsen Ave,11236,1,54,1009741,173411,dsmith6@schools.nyc.gov,http://schools.nyc.gov/schoolportals/18/k114,3,3,3,18K114,40.642792,-73.90880600000001,18,46,964,3229159.0,3081600022.0,Canarsie                                                                   
56,K115,DOE,K,P.S. 115 Daniel Mucatel School,,718-241-1000,1500 East 92 St,11236,1,108,1012677,170592,lborgese@schools.nyc.gov,http://schools.nyc.gov/schoolportals/18/k115,2,3,3,18K115,40.635015,-73.897262,18,46,1008,3232559.0,3082560001.0,Canarsie                                                                   
57,K118,DOE,K,The Maurice Sendak Community School,,718-840-5660,211 8th St,11215,1,66,987659,183768,wgarraway@schools.nyc.gov,http://schools.nyc.gov/schoolportals/15/k118,3,3,3,15K118,40.670764,-73.987787,6,39,137,3021840.0,3009980001.0,Park Slope-Gowanus                                                         
58,K119,DOE,K,P.S. 119 Amersfort,,718-377-7696,3829 Ave K,11210,1,36,1001254,167364,lfernan5@schools.nyc.gov,http://schools.nyc.gov/schoolportals/22/k119,3,3,3,22K119,40.625662,-73.938265,18,45,734,3215816.0,3077860001.0,Flatlands                                                                  
59,K120,DOE,K,P.S. 120 Carlos Tapia,,718-455-1000,18 Beaver St,11206,1,90,1001511,194534,lcaraba@schools.nyc.gov,http://schools.nyc.gov/schoolportals/14/k120,3,3,1,14K120,40.700911,-73.938884,4,34,389,3071806.0,3031370026.0,Bushwick South                                                             
60,K121,DOE,K,P.S. 121 Nelson A Rockefeller,,718-377-8845,5301 20 Ave,11204,1,18,990132,166212,cmagrone@schools.nyc.gov,http://schools.nyc.gov/schoolportals/21/k121,2,3,3,21K121,40.623273,-73.978822,12,44,464,3253281.0,3054951101.0,Borough Park                                                               
61,K123,DOE,K,P.S. 123 Suydam,,718-821-4810,100 Irving Ave,11237,1,36,1005736,195753,aparach@schools.nyc.gov,http://schools.nyc.gov/schoolportals/32/k123,2,1,3,32K123,40.703767,-73.922702,4,34,445,3072966.0,3032100001.0,Bushwick North                                                             
62,K124,DOE,K,P.S. 124 Silas B Dutcher,,718-788-0246,515 4 Ave,11215,1,36,986830,182462,aburrell2@schools.nyc.gov,http://schools.nyc.gov/schoolportals/15/k124,2,3,3,15K124,40.667545000000004,-73.991046,6,39,141,3023391.0,3010340001.0,Park Slope-Gowanus                                                         
63,K129,CHARTER,K,Success Academy Charter School - Cobble Hill Pre - Kindergarten,,718-704-1460,284 Baltic St,11201,1,18,986088,188932,SACH.MainOffice@saschools.org,http://successacademies.org/schools/cobble-hill/,5,9,3,15K129,40.685419,-73.993351,6,33,69,3006401.0,3004020001.0,DUMBO-Vinegar Hill-Downtown Brooklyn-Boerum Hill                           
64,K130,DOE,K,P.S. 130 The Parkside,,718-686-1940,70 Ocean Pkwy,11218,1,72,990932,175699,mnunzia@schools.nyc.gov,http://ps130brooklyn.com,2,7,3,15K130,40.648884,-73.975607,7,39,500,3124019.0,3053190001.0,Windsor Terrace                                                            
65,K131,DOE,K,P.S. 131 Brooklyn,,718-431-1960,4305 Ft Hamilton Pkwy,11219,1,36,986096,172731,rquiles2@schools.nyc.gov,http://schools.nyc.gov/schoolportals/15/k131,2,3,3,15K131,40.641157,-73.993482,12,39,224,3136085.0,3056030001.0,Borough Park                                                               
66,K132,DOE,K,P.S. 132 The Conselyea School,,718-599-7301,320 Manhattan Ave,11211,1,72,999251,199688,blubeck@schools.nyc.gov,http://ps132andyou.net,2,3,3,14K132,40.714659999999995,-73.946108,1,34,497,3068728.0,3027590001.0,East Williamsburg                                                          
67,K133,DOE,K,P.S. 133 William A Butler,"<P> <Strong>Note:</strong> Students in District 15 are prioritized for two-thirds of seats and students in District 13 are prioritized for the remaining third. Within each district group, students who qualify for Free and Reduced Lunch and/or are English Language Learners will have priority for 35% of those seats. </P>",718-398-5320,610 Baltic St,11217,1,64,989651,187141,adickerson@schools.nyc.gov,http://ps133brooklyn.org,2,3,3,13K133,40.680428000000006,-73.980491,6,39,12901,3413716.0,3009400111.0,Park Slope-Gowanus                                                         
68,K135,DOE,K,P.S. 135 Sheldon A Brookner,,718-693-4363,684 Linden Blvd,11203,1,36,1002848,177315,tmcrae2@schools.nyc.gov,http://schools.nyc.gov/schoolportals/18/k135,2,7,3,18K135,40.65364,-73.933114,17,41,870,3102005.0,3046730001.0,East Flatbush-Farragut                                                     
69,K137,DOE,K,P.S. / I.S. 137 Rachel Jean Mitchell,,718-453-2926,121 Saratoga Ave,11233,1,18,1007348,187847,zcooper@schools.nyc.gov,http://schools.nyc.gov/schoolportals/23/k137,3,3,3,23K137,40.682458000000004,-73.917088,16,41,373,3040878.0,3015100001.0,Ocean Hill                                                                 
70,K138,DOE,K,P.S. 138 Brooklyn,,718-467-0800,760 Prospect Pl,11216,1,72,997749,184891,mchauve@schools.nyc.gov,http://schools.nyc.gov/schoolportals/17/k138,2,3,3,17K138,40.67438,-73.95144300000001,8,36,31701,3330794.0,3012330026.0,Crown Heights North                                                        
71,K139,DOE,K,P.S. 139 Alexine A Fenty,,718-282-5254,330 Rugby Rd,11226,1,54,993758,172958,mmcdona10@schools.nyc.gov,http://schools.nyc.gov/schoolportals/22/k139,2,7,3,22K139,40.641937,-73.965523,14,40,1522,3328235.0,3051440064.0,Flatbush                                                                   
72,K145,DOE,K,P.S. 145 Andrew Jackson,,718-821-4823,100 Noll St,11206,1,90,1003047,194870,LMalloy@schools.nyc.gov,http://schools.nyc.gov/schoolportals/32/k145,2,7,3,32K145,40.701692,-73.932338,4,34,425,3071915.0,3031530011.0,Bushwick South                                                             
73,K146,DOE,K,P.S. 146,<P><Strong>Note:</strong> Students who qualify for Free and Reduced Lunch have priority after siblings.</p>,718-923-4750,610 Henry St,11231,1,36,983782,186982,amysumner@bns146.org,http://bns146.org,3,3,1,15K146,40.68007,-74.001377,6,39,63,3336036.0,3003690001.0,Carroll Gardens-Columbia Street-Red Hook                                   
74,K147,DOE,K,P.S. 147 Isaac Remsen,,718-497-0326,325 Bushwick Ave,11206,1,54,1001203,196190,snoyola@schools.nyc.gov,http://ps147brooklyn.org/,3,3,3,14K147,40.705203999999995,-73.93940699999999,1,34,485,3071418.0,3030910001.0,Bushwick South                                                             
75,K149,DOE,K,P.S. 149 Danny Kaye,,718-385-8666,700 Sutter Ave,11207,1,90,1013999,183181,yschoff@schools.nyc.gov,http://schools.nyc.gov/schoolportals/19/k149,3,3,1,19K149,40.669719,-73.892822,5,42,1158,3084348.0,3037740016.0,East New York (Pennsylvania Ave)                                           
76,K151,DOE,K,P.S. 151 Lyndon B Johnson,,718-326-6360,763 Knickerbocker Ave,11207,1,18,1009676,191905,jhunt@schools.nyc.gov,http://schools.nyc.gov/schoolportals/32/k151,2,3,3,32K151,40.693293,-73.90864,4,37,437,3078654.0,3034060001.0,Bushwick North                                                             
77,K152,DOE,K,School Of Science & Technology,,718-434-5222,725 East 23 St,11210,1,18,996920,169771,csheldr@schools.nyc.gov,http://schools.nyc.gov/schoolportals/22/k152,2,7,3,22K152,40.632562,-73.954724,14,45,772,3205780.0,3075510026.0,Flatbush                                                                   
78,K153,DOE,K,P.S. 153 Homecrest,,718-375-4484,1970 Homecrest Ave,11229,1,64,995364,158309,csanta@schools.nyc.gov,http://schools.nyc.gov/schoolportals/21/k153,2,3,3,21K153,40.601617,-73.959779,15,48,556,3196677.0,3072910030.0,Homecrest                                                                  
79,K155,DOE,K,P.S. / I.S. 155 Nicholas Herkimer,,718-495-7751,1355 Herkimer St,11233,1,36,1009570,186160,ncortes3@schools.nyc.gov,http://schools.nyc.gov/schoolportals/23/k155,3,7,3,23K155,40.677415,-73.908734,16,37,369,3042263.0,3015520043.0,Ocean Hill                                                                 
80,K156,DOE,K,P.S. 156 Waverly,,718-498-2811,104 Sutter Ave,11212,1,36,1006944,181831,23k156@schools.nyc.gov,http://156k.org,2,3,3,23K156,40.665965,-73.91810699999999,16,41,900,3081276.0,3035350016.0,Brownsville                                                                
81,K157,DOE,K,P.S. 157 Benjamin Franklin,,718-622-9285,850 Kent Ave,11205,1,36,995355,192637,ps157@outlook.com,http://schools.nyc.gov/schoolportals/14/k157,3,3,3,14K157,40.695417,-73.959571,3,33,1237,3054671.0,3018970013.0,Bedford                                                                    
82,K158,DOE,K,P.S. 158 Warwick,,718-277-6116,400 Ashford St,11207,1,72,1016131,184337,awilson3@schools.nyc.gov,http://schools.nyc.gov/schoolportals/19/k158,3,3,3,19K158,40.672579,-73.884803,5,37,1150,3089176.0,3040150001.0,East New York                                                              
83,K161,DOE,K,P.S. 161 The Crown,,718-756-3100,330 Crown St,11225,1,36,998338,181915,mjohnso10@schools.nyc.gov,http://schools.nyc.gov/schoolportals/17/k161,2,3,3,17K161,40.666181,-73.949013,9,35,319,3034181.0,3012970026.0,Crown Heights South                                                        
84,K164,DOE,K,P.S. 164 Caesar Rodney,,718-854-4100,4211 14 Ave,11219,1,46,988177,171416,esteinberg@schools.nyc.gov,http://schools.nyc.gov/schoolportals/20/k164,3,7,3,20K164,40.637485999999996,-73.985955,12,44,232,3135976.0,3056000001.0,Borough Park                                                               
85,K165,DOE,K,P.S. 165 Ida Posner,,718-495-7759,76 Lott Ave,11212,1,36,1008949,178732,fellers@schools.nyc.gov,http://schools.nyc.gov/schoolportals/23/k165,2,3,3,23K165,40.65744,-73.91105300000001,16,42,896,3082726.0,3036220023.0,Brownsville                                                                
86,K172,DOE,K,P.S. 172 Beacon School Of Excellence,,718-965-4200,825 4 Ave,11232,1,36,984158,178921,jspatol@schools.nyc.gov,http://schools.nyc.gov/schoolportals/15/k172,2,3,3,15K172,40.657914,-74.000652,7,38,101,3009847.0,3006690001.0,Sunset Park West                                                           
87,K177,DOE,K,P.S. 177 The Marlboro,,718-375-9506,346 Ave P,11204,1,36,991336,160937,scaleca@schools.nyc.gov,http://schools.nyc.gov/schoolportals/21/k177,2,3,3,21K177,40.608604,-73.974847,11,44,424,3175834.0,3066310001.0,Bensonhurst East                                                           
88,K178,DOE,K,P.S. 178 St. Clair Mckelway,,718-495-7768,2163 Dean St,11233,1,36,1007728,185292,jhenry1@schools.nyc.gov,http://schools.nyc.gov/schoolportals/23/k178,3,3,3,23K178,40.675024,-73.915778,16,41,303,3038718.0,3014400056.0,Ocean Hill                                                                 
89,K179,DOE,K,P.S. 179 Kensington,,718-438-4010,202 Ave C,11218,1,80,990551,172548,bamato@schools.nyc.gov,http://ps179kensington.com,5,9,3,20K179,40.640463000000004,-73.977642,12,39,488,3126001.0,3053710001.0,Kensington-Ocean Parkway                                                   
90,K180,DOE,K,The Seeall Academy,,718-851-8070,5601 16 Ave,11204,1,38,987136,167594,20k180@schools.nyc.gov,http://seeallacademy.com,2,3,3,20K180,40.627029,-73.989672,12,44,470,3130809.0,3054920001.0,Borough Park                                                               
91,K181,DOE,K,P.S. 181 Brooklyn,,718-462-5298,1023 New York Ave,11203,1,28,999237,175436,kgrady@schools.nyc.gov,http://schools.nyc.gov/schoolportals/17/k181,3,3,3,17K181,40.648215,-73.946374,17,45,856,3327776.0,3049040010.0,East Flatbush-Farragut                                                     
92,K182,CHARTER,K,Success Academy Charter School - Williamsburg Pre - Kindergarten,,718-704-1419,183 South 3rd St,11211,1,18,995368,198597,SAWB.MainOffice@saschools.org,http://successacademies.org/schools/williamsburg/,5,9,3,14K182,40.711704,-73.960275,1,34,523,3063128.0,3024190001.0,North Side-South Side                                                      
93,K184,DOE,K,P.S. 184 Newport,,718-495-7775,273 Newport St,11212,1,72,1010622,179822,llinder@schools.nyc.gov,http://schools.nyc.gov/schoolportals/23/k184,2,3,3,23K184,40.659966,-73.904901,16,42,918,3082391.0,3036060001.0,Brownsville                                                                
94,K186,DOE,K,P.S. 186 Dr. Irving A Gladstone,,718-236-7071,7601 19 Ave,11214,1,18,985747,161927,bcadotte@schools.nyc.gov,http://ps186.com,5,9,3,20K186,40.611483,-73.994677,11,47,274,3160923.0,3062390001.0,Bensonhurst West                                                           
95,K188,DOE,K,P.S. 188 Michael E Berdy,,718-265-7580,3314 Neptune Ave,11224,1,36,984106,149472,agreen31@schools.nyc.gov,http://schools.nyc.gov/schoolportals/21/k188,3,3,3,21K188,40.577217,-74.000194,13,47,328,3188726.0,3070060001.0,Seagate-Coney Island                                                       
96,K190,DOE,K,P.S. 190 Sheffield,,718-346-8780,590 Sheffield Ave,11207,1,18,1013461,180625,ssantiago11@schools.nyc.gov,http://schools.nyc.gov/schoolportals/19/k190,2,3,3,19K190,40.662326,-73.894441,5,42,1128,3085491.0,3038380018.0,East New York (Pennsylvania Ave)                                           
97,K191,DOE,K,P.S. 191 Paul Robeson,,718-756-1206,1600 Park Pl,11233,1,18,1005274,184040,ecapolo@schools.nyc.gov,http://schools.nyc.gov/schoolportals/17/k191,2,3,3,17K191,40.672005,-73.924329,8,41,359,3036635.0,3013750012.0,Crown Heights North                                                        
98,K192,DOE,K,P.S. 192 - The Magnet School For Math And Science Inquiry,,718-633-3061,4715 18 Ave,11204,1,46,989832,168445,lisaac@schools.nyc.gov,http://ps-is192.org/,3,3,3,20K192,40.629303,-73.979995,12,44,476,3128909.0,3054450001.0,Borough Park                                                               
99,K193,DOE,K,P.S. 193 Gil Hodges,,718-338-9011,2515 Ave L,11210,1,18,998056,165816,TBackof@schools.nyc.gov,http://gilhodgesschool.wix.com/ps193,3,3,3,22K193,40.621507,-73.950473,14,45,754,3208461.0,3076250001.0,Midwood                                                                    
100,K194,DOE,K,P.S. 194 Raoul Wallenberg,,718-648-8804,3117 Ave W,11229,1,36,1002569,156858,mzissle@schools.nyc.gov,http://schools.nyc.gov/schoolportals/22/k194,2,3,3,22K194,40.596757000000004,-73.933499,15,46,570,3201629.0,3073930001.0,Sheepshead Bay-Gerritsen Beach-Manhattan Beach                             
101,K195,DOE,K,P.S. 195 Manhattan Beach,,718-648-9102,131 Irwin St,11235,1,18,999917,150530,btoomey@schools.nyc.gov,http://schools.nyc.gov/schoolportals/22/k195,2,1,3,22K195,40.579451,-73.94381899999999,15,48,620,3246519.0,3087520035.0,Sheepshead Bay-Gerritsen Beach-Manhattan Beach                             
102,K196,DOE,K,P.S. 196 Ten Eyck,,718-497-0139,207 Bushwick Ave,11206,1,46,1000961,197506,mrodriguez3@schools.nyc.gov,http://schools.nyc.gov/schoolportals/14/k196,3,3,3,14K196,40.708723,-73.940002,1,34,485,3071024.0,3030460001.0,Bushwick South                                                             
103,K197,DOE,K,P.S. 197 - The Kings Highway Academy,,718-377-7890,1599 East 22 St,11210,1,72,997690,162462,rnicole@schools.nyc.gov,http://schools.nyc.gov/schoolportals/22/k197,2,3,3,22K197,40.612623,-73.95190600000001,14,48,546,3182169.0,3067690018.0,Midwood                                                                    
104,K198,DOE,K,P.S. 198 Brooklyn,,718-282-4920,4105 Farragut Rd,11210,1,36,1001725,171434,jmorgan2@schools.nyc.gov,http://schools.nyc.gov/schoolportals/22/k198,2,3,3,22K198,40.63694,-73.937339,17,45,836,3113388.0,3049880066.0,East Flatbush-Farragut                                                     
105,K199,DOE,K,P.S. 199 Frederick Wachtel,,718-339-1422,1100 Elm Ave,11230,1,36,994497,163891,21k199@schools.nyc.gov,http://schools.nyc.gov/schoolportals/21/k199,2,3,3,21K199,40.616632,-73.963476,14,48,768,3180761.0,3067400025.0,Midwood                                                                    
106,K200,DOE,K,P.S. 200 Benson School,,718-236-5466,1940 Benson Ave,11214,1,36,983788,158980,jmuniz@schools.nyc.gov,http://schools.nyc.gov/schoolportals/20/k200,2,1,3,20K200,40.603188,-74.001408,11,43,282,3167818.0,3064070008.0,Bath Beach                                                                 
107,K202,DOE,K,P.S. 202 Ernest S Jenkyns,,718-649-7880,982 Hegeman Ave,11208,1,54,1018510,181996,mspence6@schools.nyc.gov,http://schools.nyc.gov/schoolportals/19/k202,2,3,3,19K202,40.666416999999996,-73.876563,5,42,1116,3098664.0,3044770001.0,East New York                                                              
108,KABC,NYCEEC,K,Bais Sarah School,,718-871-7571,6101 16 Ave,11204,1,60,986288,166574,baissarahupk@verizon.net,,5,9,3,20KABC,40.624186,-73.99263,11,44,248,3132384.0,3055240001.0,Bensonhurst West                                                           
109,K203,DOE,K,P.S. 203 Floyd Bennett School,,718-241-8488,5101 Ave M,11234,1,126,1004878,165792,lesposi3@schools.nyc.gov,http://schools.nyc.gov/schoolportals/22/k203,2,3,3,22K203,40.621435999999996,-73.925989,18,46,680,3218626.0,3078490001.0,Flatlands                                                                  
110,K204,DOE,K,P.S. 204 Vince Lombardi,,718-236-2906,8101 15 Ave,11228,1,36,982425,162902,jlogosso@schools.nyc.gov,http://schools.nyc.gov/schoolportals/20/k204,5,9,3,20K204,40.614159,-74.006638,11,43,184,3163702.0,3062940001.0,Bensonhurst West                                                           
111,K205,DOE,K,P.S. 205 Clarion,,718-236-2380,6701 20 Ave,11204,1,54,987836,163315,bgrater@schools.nyc.gov,http://schools.nyc.gov/schoolportals/20/k205,2,3,3,20K205,40.61527,-73.987149,11,47,256,3134749.0,3055710001.0,Bensonhurst West                                                           
112,K206,DOE,K,P.S. 206 Joseph F Lamb,,718-743-5598,2200 Gravesend Nck Rd,11229,1,36,998543,156874,jhom42@schools.nyc.gov,http://schools.nyc.gov/schoolportals/22/k206,2,3,3,22K206,40.597369,-73.94894599999999,15,48,59401,3201080.0,3073810201.0,Sheepshead Bay-Gerritsen Beach-Manhattan Beach                             
113,K207,DOE,K,P.S. 207 Elizabeth G Leary,,718-645-8667,4011 Fillmore Ave,11234,1,36,1003637,162866,mbosco@schools.nyc.gov,http://schools.nyc.gov/schoolportals/22/k207,2,3,3,22K207,40.613353000000004,-73.93012900000001,18,46,652,3239388.0,3084840001.0,Georgetown-Marine Park-Bergen Beach-Mill Basin                             
114,KAOQ,NYCEEC,K,Yeshiva Of Kings Bay,,718-646-8500,2611 Ave Z,11235,3,18,1000029,154006,myz@ykb.us,,5,9,3,22KAOQ,40.589179,-73.943404,15,48,596,3204595.0,3074420011.0,Sheepshead Bay-Gerritsen Beach-Manhattan Beach                             
115,K208,DOE,K,P.S. 208 Elsa Ebeling,,718-629-1670,4801 Ave D,11203,1,36,1003436,173291,NRenville@schools.nyc.gov,http://schools.nyc.gov/schoolportals/18/k208,2,3,3,18K208,40.642031,-73.931151,17,45,840,3105680.0,3047690025.0,East Flatbush-Farragut                                                     
116,K209,DOE,K,P.S. 209 Margaret Mead,,718-743-1954,2609 East 7 St,11235,1,36,994897,153044,flocurc@schools.nyc.gov,http://schools.nyc.gov/schoolportals/21/k209,2,3,3,21K209,40.586845000000004,-73.96198000000001,13,48,370,3196224.0,3072440001.0,Brighton Beach                                                             
117,K212,DOE,K,P.S. 212 Lady Deborah Moody,,718-266-4841,87 Bay 49 St,11214,1,54,988250,153341,jmarsel@schools.nyc.gov,http://schools.nyc.gov/schoolportals/21/k212,2,3,3,21K212,40.587616,-73.985948,13,47,314,3187407.0,3069170001.0,Gravesend                                                                  
118,K213,DOE,K,P.S. 213 New Lots,,718-257-4034,580 Hegeman Ave,11207,1,54,1014692,179849,smoise2@schools.nyc.gov,http://schools.nyc.gov/schoolportals/19/k213,3,3,3,19K213,40.660509999999995,-73.890288,5,42,1104,3097334.0,3043240001.0,East New York                                                              
119,K214,DOE,K,P.S. 214 Michael Friedsam,,718-647-1740,2944 Pitkin Ave,11208,1,108,1022233,185689,SMahabi@schools.nyc.gov,http://schools.nyc.gov/schoolportals/19/k214,3,3,3,19K214,40.676513,-73.863151,5,37,1202,3095254.0,3042430001.0,Cypress Hills-City Line                                                    
120,K215,DOE,K,P.S. 215 Morris H Weiss,,718-339-2464,415 Ave S,11223,1,54,992559,158723,above@schools.nyc.gov,http://schools.nyc.gov/schoolportals/21/k215,2,3,3,21K215,40.602084000000005,-73.970013,15,47,41401,3178584.0,3066810169.0,Homecrest                                                                  
121,K216,DOE,K,P.S. 216 Arturo Toscanini,,718-645-2862,350 Ave X,11223,1,102,992663,154348,DNeglia@schools.nyc.gov,http://schools.nyc.gov/schoolportals/21/k216,2,3,3,21K216,40.590564,-73.969964,15,47,37401,3195175.0,3071960001.0,Gravesend                                                                  
122,K217,DOE,K,P.S. 217 Colonel David Marcus School,,718-434-6960,1100 Newkirk Ave,11230,1,54,993573,170160,fconti@schools.nyc.gov,http://schools.nyc.gov/schoolportals/22/k217,2,1,3,22K217,40.63398,-73.96655799999999,14,40,526,3121072.0,3052320001.0,Flatbush                                                                   
123,K219,DOE,K,P.S. 219 Kennedy - King,,718-342-0493,1060 Clarkson Ave,11212,1,72,1005716,179426,wsmith4@schools.nyc.gov,http://schools.nyc.gov/schoolportals/18/k219,2,2,3,18K219,40.659288000000004,-73.922919,17,41,886,3101168.0,3046480001.0,Rugby-Remsen Village                                                       
124,K221,DOE,K,P.S. 221 Toussaint L'Ouverture,,718-756-0122,791 Empire Blvd,11213,1,54,1001983,181168,cmoodie@schools.nyc.gov,http://schools.nyc.gov/schoolportals/17/k221,2,3,3,17K221,40.663701,-73.936049,9,35,355,3038372.0,3014230014.0,Crown Heights South                                                        
125,K222,DOE,K,P.S. 222 Katherine R Snyder,,718-998-4298,3301 Quentin Rd,11234,1,36,1001227,162862,tolivie@schools.nyc.gov,http://schools.nyc.gov/schoolportals/22/k222,2,3,3,22K222,40.613316999999995,-73.93887099999999,18,46,646,3212254.0,3077060001.0,Georgetown-Marine Park-Bergen Beach-Mill Basin                             
126,K224,DOE,K,P.S. 224 Hale A Woodruff,,718-235-3600,757 Wortman Ave,11208,1,54,1021434,181544,gandrews@schools.nyc.gov,http://schools.nyc.gov/schoolportals/19/k224,3,3,3,19K224,40.664075,-73.86609200000001,5,42,1220,3098980.0,3045300001.0,East New York                                                              
127,K225,DOE,K,P.S. K225 - The Eileen E Zaglin,,718-743-9793,1075 Ocean Vw Ave,11235,1,66,996443,150554,MCosmai@schools.nyc.gov,http://schools.nyc.gov/schoolportals/21/k225,3,2,3,21K225,40.579737,-73.956329,13,48,61004,3245498.0,3087120056.0,Brighton Beach                                                             
128,K226,DOE,K,P.S. 226 Alfred De Bmason,,718-234-4940,6006 23 Ave,11204,1,54,990693,163416,stannen2@schools.nyc.gov,http://schools.nyc.gov/schoolportals/21/k226,3,7,3,21K226,40.615252000000005,-73.97635,12,44,446,3172071.0,3065490024.0,Borough Park                                                               
129,K229,DOE,K,P.S. 229 Dyker,,718-236-5447,1400 Benson Ave,11228,1,30,980558,161737,rzappul@schools.nyc.gov,http://ps229.org,2,3,3,20K229,40.610963,-74.013376,11,43,170,3167212.0,3063910024.0,Bath Beach                                                                 
130,K230,DOE,K,P.S. 230 Doris L Cohen,,718-437-6135,1 Albemarle Rd,11218,1,72,989675,174378,mdellaragione@schools.nyc.gov,http://schools.nyc.gov/schoolportals/15/k230,3,2,3,15K230,40.645016999999996,-73.980761,12,39,498,3124109.0,3053230032.0,Kensington-Ocean Parkway                                                   
131,K233,DOE,K,P.S. 233 Langston Hughes,,718-346-8103,9301 Ave B,11236,1,72,1008110,176607,tallen10@schools.nyc.gov,http://ps233-k12-et.schoolloop.com,2,3,3,18K233,40.651022,-73.91402,17,42,930,3104990.0,3047530001.0,Rugby-Remsen Village                                                       
132,K235,DOE,K,P.S. 235 Lenox School,,718-773-4869,525 Lenox Rd,11203,1,36,1000654,177895,llord@schools.nyc.gov,http://schools.nyc.gov/schoolportals/18/k235,2,3,3,18K235,40.654703999999995,-73.941089,17,41,814,3107846.0,3048440001.0,East Flatbush-Farragut                                                     
133,K236,DOE,K,P.S. 236 Mill Basin,,718-444-6969,6302 Ave U,11234,1,54,1008520,163671,alabella@schools.nyc.gov,http://schools.nyc.gov/schoolportals/22/k236,2,3,3,22K236,40.615998,-73.912989,18,46,698,3326821.0,3084640001.0,Georgetown-Marine Park-Bergen Beach-Mill Basin                             
134,K238,DOE,K,P.S. 238 Anne Sullivan,,718-339-4355,1633 East 8 St,11223,1,102,994024,161069,hmusoff@schools.nyc.gov,http://schools.nyc.gov/schoolportals/21/k238,3,3,3,21K238,40.608862,-73.965058,15,44,420,3176229.0,3066400013.0,Homecrest                                                                  
135,K241,DOE,K,P.S. 241 Emma L Johnston,,718-636-4725,976 President St,11225,1,72,995237,183023,flucius@schools.nyc.gov,http://schools.nyc.gov/schoolportals/17/k241,2,7,3,17K241,40.669339,-73.960675,9,35,213,3378160.0,3011880001.0,Crown Heights South                                                        
136,K243,DOE,K,P.S. 243k - The Weeksville School,,718-604-6909,1580 Dean St,11213,1,36,1002118,185508,khambri@schools.nyc.gov,http://schools.nyc.gov/schoolportals/16/k243,2,3,3,16K243,40.676094,-73.935688,8,36,309,3035761.0,3013470001.0,Crown Heights North                                                        
137,K244,DOE,K,P.S. 244 Richard R Green,,718-346-6240,5404 Tilden Ave,11203,1,36,1004881,175443,dedwards@schools.nyc.gov,http://schools.nyc.gov/schoolportals/18/k244,2,1,3,18K244,40.648423,-73.92594799999999,17,45,946,3104513.0,3047390001.0,Rugby-Remsen Village                                                       
138,K245,DOE,K,P.S. 245,,718-284-2330,249 East 17th St,11226,1,18,994541,174249,ewillia14@schools.nyc.gov,http://schools.nyc.gov/schoolportals/22/k245,2,3,3,22K245,40.645016,-73.963208,14,40,512,3117584.0,3051210032.0,Flatbush                                                                   
139,K247,DOE,K,P.S. 247 Brooklyn,,718-236-4205,7000 21 Ave,11204,1,18,987819,162329,cogno@schools.nyc.gov,http://schools.nyc.gov/schoolportals/20/k247,2,3,3,20K247,40.612272999999995,-73.986713,11,47,258,3157466.0,3061740036.0,Bensonhurst West                                                           
140,K249,DOE,K,P.S. 249 The Caton,,718-282-8828,18 Marlborough Rd,11226,1,36,993590,175985,ebrown4@schools.nyc.gov,http://schools.nyc.gov/schoolportals/17/k249,5,9,3,17K249,40.64971,-73.96604599999999,14,40,506,3116438.0,3050750001.0,Flatbush                                                                   
141,K250,DOE,K,P.S. 250 George H Lindsay,,718-384-0889,108 Montrose Ave,11206,1,36,999425,196814,nbarnes2@schools.nyc.gov,http://schools.nyc.gov/schoolportals/14/k250,2,7,3,14K250,40.707104,-73.945475,1,34,505,3071199.0,3030600001.0,East Williamsburg                                                          
142,K251,DOE,K,P.S. 251 Paerdegat,,718-251-4110,1037 East 54 St,11234,1,90,1005337,169271,sboyer@schools.nyc.gov,http://schools.nyc.gov/schoolportals/22/k251,2,3,3,22K251,40.632524,-73.924417,18,46,722,3214729.0,3077580001.0,Flatlands                                                                  
143,K253,DOE,K,P.S. 253,,718-332-3331,601 Oceanview Ave,11235,1,36,994847,150547,lsperon@schools.nyc.gov,http://schools.nyc.gov/schoolportals/21/k253,3,3,3,21K253,40.579607,-73.962071,13,48,364,3244470.0,3086660610.0,Brighton Beach                                                             
144,K254,DOE,K,P.S. 254 Dag Hammarskjold,,718-743-0890,1801 Ave Y,11235,1,54,997727,154490,lalhono@schools.nyc.gov,http://schools.nyc.gov/schoolportals/22/k254,2,3,3,22K254,40.590423,-73.951753,15,48,592,3203132.0,3074200026.0,Sheepshead Bay-Gerritsen Beach-Manhattan Beach                             
145,K255,DOE,K,P.S. 255 Barbara Reing School,,718-376-8494,1866 East 17 St,11229,1,46,996523,159403,22k255@schools.nyc.gov,http://ps255.org,2,3,3,22K255,40.604349,-73.955528,15,48,558,3184034.0,3068210123.0,Madison                                                                    
146,K256,DOE,K,P.S. 256 Benjamin Banneker,,718-857-9820,114 Kosciusko St,11216,1,18,998224,190889,shemphi@schools.nyc.gov,http://schools.nyc.gov/schoolportals/13/k256,2,3,3,13K256,40.690725,-73.95043299999999,3,36,253,3049769.0,3017840020.0,Bedford                                                                    
147,K257,DOE,K,P.S. 257 John F Hylan,,718-384-7128,60 Cook St,11206,1,64,1000436,195288,bjusino@schools.nyc.gov,http://schools.nyc.gov/schoolportals/14/k257,2,3,3,14K257,40.702391999999996,-73.941801,1,34,491,3071571.0,3031140011.0,East Williamsburg                                                          
148,K261,DOE,K,P.S. 261 Philip Livingston,,718-330-9275,314 Pacific St,11201,1,36,987504,189641,zmills@schools.nyc.gov,http://schools.nyc.gov/schoolportals/15/k261,2,3,3,15K261,40.687466,-73.988288,2,33,43,3001070.0,3001880014.0,DUMBO-Vinegar Hill-Downtown Brooklyn-Boerum Hill                           
149,K262,DOE,K,P.S. 262 El Hajj Malik El Shabazz Elementary School,,718-453-0780,500 Macon St,11233,1,18,1003788,188160,igarner@schools.nyc.gov,http://ps262.org/home.aspx,3,3,1,16K262,40.683240999999995,-73.930813,3,36,297,3046876.0,3016710019.0,Crown Heights North                                                        
150,K268,DOE,K,P.S. 268 Emma Lazarus,,718-773-5332,133 East 53 St,11203,1,36,1004308,178698,VKirton@schools.nyc.gov,http://schools.nyc.gov/schoolportals/18/k268,3,1,3,18K268,40.657131,-73.92801800000001,17,41,866,3100292.0,3046230028.0,Rugby-Remsen Village                                                       
151,K269,DOE,K,P.S. 269 Nostrand,,718-941-2800,1957 Nostrand Ave,11210,1,36,998729,171624,jpagan22@schools.nyc.gov,http://schools.nyc.gov/schoolportals/22/k269,3,2,3,22K269,40.637710999999996,-73.94815899999999,17,45,788,3113780.0,3049940023.0,Flatbush                                                                   
152,K270,DOE,K,P.S. 270 Johann Dekalb,,718-623-5280,241 Emerson Pl,11205,1,54,994945,191064,sneely@schools.nyc.gov,http://schools.nyc.gov/schoolportals/13/k270,2,3,3,13K270,40.690202,-73.961478,2,35,193,3055378.0,3019330102.0,Clinton Hill                                                               
153,K273,DOE,K,P.S. 273 Wortman,,718-649-5739,923 Jerome St,11207,1,36,1017806,179114,mavery@schools.nyc.gov,http://schools.nyc.gov/schoolportals/19/k273,2,3,3,19K273,40.657922,-73.879354,5,42,1078,3097973.0,3044010001.0,East New York                                                              
154,K274,DOE,K,P.S. 274 Kosciusko,,718-574-0273,800 Bushwick Ave,11221,1,54,1004250,192316,mollivi@schools.nyc.gov,http://schools.nyc.gov/schoolportals/32/k274,3,3,3,32K274,40.694921,-73.927931,4,34,393,3073752.0,3032410037.0,Bushwick South                                                             
155,K276,DOE,K,P.S. 276 Louis Marshall,,718-241-5757,1070 East 83 St,11236,1,144,1009786,170188,yfideli@schools.nyc.gov,http://schools.nyc.gov/schoolportals/18/k276,2,3,3,18K276,40.634085,-73.907925,18,46,996,3225637.0,3080340001.0,Canarsie                                                                   
156,K277,DOE,K,P.S. 277 Gerritsen Beach,,718-743-6689,2529 Gerritsen Ave,11229,1,18,1004239,156389,jfish3@schools.nyc.gov,http://schools.nyc.gov/schoolportals/22/k277,2,7,3,22K277,40.596145,-73.928793,18,46,666,3242369.0,3085900650.0,park-cemetery-etc-Brooklyn                                                 
157,K279,DOE,K,P.S. 279 Herman Schreiber,,718-444-4316,1070 East 104 St,11236,1,72,1014049,173991,trawleigh@schools.nyc.gov,http://schools.nyc.gov/schoolportals/18/k279,2,3,3,18K279,40.644203000000005,-73.892264,18,46,986,3326733.0,3082300001.0,Canarsie                                                                   
158,K280,DOE,K,Pre - K Center At Bishop Ford School Site,,718-965-1190,500 19th St,11215,1,488,989077,178398,mseide2@schools.nyc.gov,http://ps10.org,2,2,1,15K863,40.656944,-73.983115,7,38,1502,3017307.0,3008890001.0,Windsor Terrace                                                            
159,K282,DOE,K,P.S. 282 Park Slope,,718-622-1626,180 6 Ave,11217,1,90,990423,185765,RHoke2@schools.nyc.gov,http://schools.nyc.gov/schoolportals/13/k282,2,7,3,13K282,40.67634,-73.977367,6,39,131,3019597.0,3009500024.0,Park Slope-Gowanus                                                         
160,K284,DOE,K,P.S. 284 Lew Wallace,,718-495-7791,213 Osborn St,11212,1,18,1009894,182254,jsanders2@schools.nyc.gov,http://schools.nyc.gov/schoolportals/23/k284,3,3,3,23K284,40.667377,-73.908214,16,41,912,3081460.0,3035440135.0,Brownsville                                                                
161,K287,DOE,K,P.S. 287 Bailey K Ashford,,718-834-4745,50 Navy St,11201,1,54,989554,193596,jfrancois5@schools.nyc.gov,http://schools.nyc.gov/schoolportals/13/k287,2,3,3,13K287,40.697901,-73.98054,2,35,23,3000203.0,3001110001.0,DUMBO-Vinegar Hill-Downtown Brooklyn-Boerum Hill                           
162,K288,DOE,K,P.S. 288 The Shirley Tanyhill,,718-382-2100,2950 West 25 St,11224,1,36,986399,148501,dlamber3@schools.nyc.gov,http://schools.nyc.gov/schoolportals/21/k288,2,3,3,21K288,40.574411,-73.99194,13,47,342,3189538.0,3070540045.0,Seagate-Coney Island                                                       
163,KABD,NYCEEC,K,Bais Tziporah,,718-436-8336,1449 39th St,11218,1,27,989033,171984,btmsm@aol.com,,5,9,3,20KABD,40.638647,-73.982997,12,39,228,3328392.0,3053470058.0,Borough Park                                                               
164,K289,DOE,K,P.S. 289 George V Brower,,718-493-3824,900 St Marks Ave,11213,1,48,1000334,185025,djeffer@schools.nyc.gov,http://schools.nyc.gov/schoolportals/17/k289,2,3,3,17K289,40.674794,-73.942639,8,36,341,3031050.0,3012290028.0,Crown Heights North                                                        
165,K290,DOE,K,P.S. 290 Juan Morel Campos,,718-647-1113,135 Schenck Ave,11207,1,18,1014898,186364,wgeorge@schools.nyc.gov,http://schools.nyc.gov/schoolportals/19/k290,2,7,3,19K290,40.677890000000005,-73.889758,5,37,1198,3087821.0,3039490018.0,East New York                                                              
166,K295,DOE,K,P.S. 295,,718-965-0390,330 18 St,11215,1,54,987330,180120,lmazza2@schools.nyc.gov,http://schools.nyc.gov/schoolportals/15/k295,2,6,3,15K295,40.660976,-73.988297,7,38,147,3331274.0,3008800001.0,Sunset Park West                                                           
167,K297,DOE,K,P.S. 297 Abraham Stockton,,718-388-4581,700 Park Ave,11206,1,18,998786,193431,jbrown28@schools.nyc.gov,http://schools.nyc.gov/schoolportals/14/k297,2,2,3,14K297,40.697781,-73.94780899999999,3,36,257,3048508.0,3017390011.0,Bedford                                                                    
168,K298,DOE,K,P.S. 298 Dr. Betty Shabazz,,718-495-7793,85 Watkins St,11212,1,46,1009797,183759,jdill2@schools.nyc.gov,http://schools.nyc.gov/schoolportals/23/k298,3,3,3,23K298,40.670986,-73.908194,16,37,906,3080768.0,3035070007.0,Brownsville                                                                
169,K299,DOE,K,P.S. 299 Thomas Warren Field,,718-574-0301,88 Woodbine St,11221,1,36,1007012,191023,wkirk2@schools.nyc.gov,http://schools.nyc.gov/schoolportals/32/k299,2,3,3,32K299,40.691077,-73.918152,4,34,399,3076734.0,3033580001.0,Bushwick South                                                             
170,K305,DOE,K,P.S. 305 Dr. Peter Ray,,718-789-3962,344 Monroe St,11216,1,18,999466,189159,jmortle@schools.nyc.gov,http://schools.nyc.gov/schoolportals/13/k305,3,3,3,13K305,40.686076,-73.945229,3,36,265,3051458.0,3018190014.0,Bedford                                                                    
171,K306,DOE,K,P.S. 306 Ethan Allen,,718-649-3155,970 Vermont St,11207,1,54,1015725,178099,lburrou2@schools.nyc.gov,http://schools.nyc.gov/schoolportals/19/k306,2,3,3,19K306,40.655997,-73.886547,5,42,1104,3097873.0,3043920001.0,East New York                                                              
172,K307,DOE,K,P.S. 307 Daniel Hale Williams,,718-834-4748,209 York St,11201,1,100,989287,194892,rdavenport@schools.nyc.gov,http://schools.nyc.gov/schoolportals/13/k307,2,3,1,13K307,40.701343,-73.982314,2,33,21,3000158.0,3000560007.0,DUMBO-Vinegar Hill-Downtown Brooklyn-Boerum Hill                           
173,K308,DOE,K,P.S. 308 Clara Cardwell,,718-574-2373,616 Quincy St,11221,1,28,1002040,190109,gpatter@schools.nyc.gov,http://schools.nyc.gov/schoolportals/16/k308,2,3,3,16K308,40.688695,-73.935499,3,36,293,3044493.0,3016300001.0,Stuyvesant Heights                                                         
174,K309,DOE,K,P.S. 309 The George E Wibecan Preparatory Academy,,718-574-2381,794 Monroe St,11221,1,28,1005259,190031,aaponte10@schools.nyc.gov,http://schools.nyc.gov/schoolportals/16/k309,2,3,3,16K309,40.688419,-73.92483299999999,3,41,385,3045047.0,3016430036.0,Stuyvesant Heights                                                         
175,K312,DOE,K,P.S. 312 Bergen Beach,,718-763-4015,7103 Ave T,11234,1,54,1009549,165828,syoo2@schools.nyc.gov,http://schools.nyc.gov/schoolportals/22/k312,2,3,3,22K312,40.621413000000004,-73.908987,18,46,69602,3236665.0,3083930001.0,Georgetown-Marine Park-Bergen Beach-Mill Basin                             
176,K315,DOE,K,P.S. K315,,718-421-9560,2310 Glenwood Rd,11210,1,18,996903,169868,jranft@schools.nyc.gov,http://schools.nyc.gov/schoolportals/22/k315,5,9,3,22K315,40.633232,-73.954655,14,45,772,3205780.0,3075510026.0,Flatbush                                                                   
177,K316,DOE,K,P.S. 316 Elijah Stroud,,718-638-4043,750 Classon Ave,11238,1,54,995204,185072,omaluf@schools.nyc.gov,http://schools.nyc.gov/schoolportals/17/k316,2,3,3,17K316,40.674406,-73.960254,8,35,215,3029246.0,3011670018.0,Prospect Heights                                                           
178,K319,DOE,K,P.S. 319,,718-388-1588,360 Keap St,11211,1,54,996991,197833,azamora@schools.nyc.gov,http://ps319williamsburg.org,3,3,1,14K319,40.709674,-73.954217,1,34,527,3063189.0,3024240001.0,North Side-South Side                                                      
179,K323,DOE,K,P.S. / I.S. 323,,718-495-7781,210 Chester St,11212,1,36,1008890,182134,lharris7@schools.nyc.gov,http://schools.nyc.gov/schoolportals/23/k323,2,3,3,23K323,40.666545,-73.910904,16,41,924,3081442.0,3035420001.0,Brownsville                                                                
180,K325,DOE,K,The Fresh Creek School,,718-272-1843,875 Williams Ave,11207,1,54,1013506,177584,jdanver@schools.nyc.gov,http://schools.nyc.gov/schoolportals/19/k325,3,3,3,19K325,40.654030999999996,-73.89485400000001,18,42,982,3229155.0,3081580035.0,Canarsie                                                                   
181,K326,DOE,K,P.S. 326,,718-241-4828,1800 Utica Ave,11234,1,28,1004192,168228,mfoster5@schools.nyc.gov,http://schools.nyc.gov/schoolportals/22/k326,2,3,3,22K326,40.628659000000006,-73.92793,18,45,728,3215550.0,3077750001.0,Flatlands                                                                  
182,K327,DOE,K,P.S. 327 Dr. Rose B English,,718-495-7801,111 Bristol St,11212,1,36,1008639,182807,kchance@schools.nyc.gov,http://schools.nyc.gov/schoolportals/23/k327,2,3,3,23K327,40.668475,-73.912351,16,41,924,3081032.0,3035200008.0,Brownsville                                                                
183,K328,DOE,K,P.S. 328 Phyllis Wheatley,,718-345-9393,330 Alabama Ave,11207,1,36,1012561,182536,bgedach@schools.nyc.gov,http://schools.nyc.gov/schoolportals/19/k328,2,3,3,19K328,40.668167,-73.897835,5,42,1134,3084283.0,3037680001.0,East New York (Pennsylvania Ave)                                           
184,K329,DOE,K,P.S. 329 Surfside,,718-996-3800,2929 West 30 St,11224,1,48,985385,148644,smarbury@schools.nyc.gov,http://ps329.schoolwires.com,2,7,3,21K329,40.574607,-73.99629200000001,13,47,342,3189517.0,3070510001.0,Seagate-Coney Island                                                       
185,K335,DOE,K,P.S. 335 Granville T Woods,,718-493-7736,130 Rochester Ave,11213,1,36,1004167,184956,principalthompson335@gmail.com,http://schools.nyc.gov/schoolportals/16/k335,2,3,3,16K335,40.674656,-73.92779399999999,8,36,307,3035887.0,3013550023.0,Crown Heights North                                                        
186,K345,DOE,K,P.S. 345 Patrolman Robert Bolden,,718-647-8387,111 Berriman St,11208,1,36,1017530,185678,wholt@schools.nyc.gov,http://schools.nyc.gov/schoolportals/19/k345,3,3,3,19K345,40.676128999999996,-73.880337,5,37,1192,3088734.0,3039900001.0,East New York                                                              
187,K346,DOE,K,P.S. 346 Abe Stark,,718-642-3000,1400 Pennsylvania Ave,11239,1,90,1017065,175010,kcaifa@schools.nyc.gov,http://schools.nyc.gov/schoolportals/19/k346,2,7,3,19K346,40.647259999999996,-73.881114,5,42,105804,3098294.0,3044520025.0,Starrett City                                                              
188,K361,DOE,K,P.S. 361 East Flatbush Early Childhood School,,718-856-0600,3109 Newkirk Ave,11226,1,36,998959,172556,jcolon5@schools.nyc.gov,http://schools.nyc.gov/schoolportals/22/k361,5,9,3,22K361,40.640066,-73.947253,17,45,830,3112334.0,3049650001.0,East Flatbush-Farragut                                                     
189,K362,CHARTER,K,Hellenic Classical Charter School,,718-499-0957,646 5th Ave,11215,1,18,986446,180808,JoyPetrakos@aol.com,http://hccs-nys.org,3,2,1,15K362,40.662646,-73.992085,7,38,143,3336795.0,3006340034.0,Park Slope-Gowanus                                                         
190,K375,DOE,K,P.S. 375 Jackie Robinson School,,718-693-6655,46 Mckeever Pl,11225,1,36,995449,181484,sellman@schools.nyc.gov,http://schools.nyc.gov/schoolportals/17/k375,3,3,1,17K375,40.665034999999996,-73.95903100000001,9,35,325,3034356.0,3013010001.0,Crown Heights South                                                        
191,KABE,NYCEEC,K,Bais Yaakov D'chassidei Gur,,718-338-5600,1975 51st St,11204,1,18,990426,166877,esmith@thejnet.com,,5,9,3,21KABE,40.62465,-73.977946,12,44,464,3129528.0,3054620045.0,Borough Park                                                               
192,K377,DOE,K,P.S. 377 Alejandrina B De Gautier,,718-574-0325,200 Woodbine St,11221,1,36,1007847,192076,dzagami@schools.nyc.gov,http://schools.nyc.gov/schoolportals/32/k377,2,7,3,32K377,40.694018,-73.915263,4,37,415,3076784.0,3033600001.0,Bushwick South                                                             
193,K380,DOE,K,P.S. 380 John Wayne Elementary,,718-388-0607,370 Marcy Ave,11206,1,82,997157,195047,enunez2@schools.nyc.gov,http://schools.nyc.gov/schoolportals/14/k380,2,3,3,14K380,40.702427,-73.952985,1,33,531,3061235.0,3022360009.0,Bedford                                                                    
194,K384,DOE,K,P.S. / I.S. 384 Frances E Carter,,718-574-0382,242 Cooper St,11207,1,36,1010671,190713,praulli@schools.nyc.gov,http://schools.nyc.gov/schoolportals/32/k384,3,3,3,32K384,40.690353,-73.904803,4,37,409,3080043.0,3034420001.0,Bushwick North                                                             
195,K394,DOE,K,M.S. K394,,718-756-3164,188 Rochester Ave,11213,1,90,1004137,184405,gshawpieters@schools.nyc.gov,http://schools.nyc.gov/schoolportals/17/k394,2,3,3,17K394,40.672762,-73.927973,8,36,347,3036289.0,3013670022.0,Crown Heights North                                                        
196,K397,DOE,K,P.S. 397 Foster - Laurie,,718-774-5200,490 Fenimore St,11203,1,12,999116,179285,ncolon@schools.nyc.gov,http://schools.nyc.gov/schoolportals/17/k397,3,3,3,17K397,40.658939000000004,-73.94629,9,40,810,3107315.0,3048150020.0,Prospect Lefferts Gardens-Wingate                                          
197,K398,DOE,K,P.S. 398 Walter Weaver,,718-774-4466,60 East 94 St,11212,1,72,1004231,181212,tkatanb@schools.nyc.gov,http://schools.nyc.gov/schoolportals/17/k398,2,3,3,17K398,40.663559,-73.926959,17,41,882,3323072.0,3045950015.0,Rugby-Remsen Village                                                       
198,K401,DOE,K,Christopher Avenue Community School,,718-495-5761,51 Christopher Ave,11212,1,36,1010248,184196,dmitche5@schools.nyc.gov,http://schools.nyc.gov/schoolportals/23/k401,2,3,3,23K401,40.672462,-73.906552,16,37,908,3083608.0,3036930001.0,Brownsville                                                                
199,K414,DOE,K,Brooklyn Arbor Elementary School,,718-963-0393,325 South 3 St,11211,1,36,996862,197921,parents@brooklynarbor.org,http://brooklynarbor.org,3,3,3,14K414,40.709647,-73.95465,1,34,527,3063188.0,3024230001.0,North Side-South Side                                                      
200,K446,DOE,K,Riverdale Avenue Community School,,718-485-1679,76 Riverdale Ave,11212,1,54,1008226,179691,info@riverdaleavenuebrooklyn.org,http://schools.nyc.gov/schoolportals/23/k446,3,3,1,23K446,40.660204,-73.913933,16,42,896,3082253.0,3035970011.0,Brownsville                                                                
201,K506,DOE,K,P.S. 506 : The School Of Journalism & Technology,,718-492-0087,330 59 St,11220,1,18,978839,173228,lsarnic@schools.nyc.gov,http://schools.nyc.gov/schoolportals/20/k506,5,9,3,20K506,40.642121,-74.018997,7,38,74,3016258.0,3008620012.0,Sunset Park West                                                           
202,K516,DOE,K,Sunset Park Avenues Elementary School,,718-369-8330,4222 4th Ave,11232,1,54,981893,176359,jrogness@schools.nyc.gov,http://sunsetparkavenues.org,3,2,3,15K516,40.650785,-74.008105,7,38,82,3337158.0,3007230025.0,Sunset Park West                                                           
203,K532,DOE,K,New Bridges Elementary,,718-363-8200,1025 Eastern Pkwy,11213,1,90,1002508,183178,kevyn@ps532newbridges.org,http://schools.nyc.gov/schoolportals/17/k532,2,3,3,17K532,40.669001,-73.934635,8,35,353,3037303.0,3013890035.0,Crown Heights North                                                        
204,K557,DOE,K,Brooklyn Gardens Elementary School,,718-495-7012,574 Dumont Ave,11207,1,36,1012718,181795,19k557@schools.nyc.gov,http://schools.nyc.gov/schoolportals/19/k557,2,3,3,19K557,40.665797999999995,-73.897723,5,42,1130,3084617.0,3038020015.0,East New York (Pennsylvania Ave)                                           
205,K599,DOE,K,Brooklyn Landmark Elementary School,,718-443-2747,251 Mcdougal St,11233,1,36,1009065,187213,bklandmark@gmail.com,http://schools.nyc.gov/schoolportals/23/k599,3,3,3,23K599,40.680318,-73.91064399999999,16,37,369,3041561.0,3015280001.0,Ocean Hill                                                                 
206,K627,DOE,K,Brighter Choice Community School,,718-574-2378,280 Hart St,11206,1,18,1000626,192069,fmcintosh2@schools.nyc.gov,http://schools.nyc.gov/schoolportals/16/k627,2,3,3,16K627,40.694086,-73.940744,3,36,281,3049420.0,3017730014.0,Stuyvesant Heights                                                         
207,K628,DOE,K,Brooklyn Brownstone School,,718-573-2307,272 Macdonough St,11233,1,36,1002154,187659,sgibbs4@schools.nyc.gov,http://schools.nyc.gov/schoolportals/16/k628,2,2,3,16K628,40.681896,-73.935963,3,36,273,3047054.0,3016740011.0,Stuyvesant Heights                                                         
208,K636,DOE,K,Young Scholars' Academy For Discovery And Exploration,,718-453-4081,280 Hart St,11206,1,36,1000728,192084,tallen3@schools.nyc.gov,http://schools.nyc.gov/schoolportals/16/k636,2,3,3,16K636,40.694086,-73.940744,3,36,281,3049420.0,3017730014.0,Stuyvesant Heights                                                         
209,K651,CHARTER,K,Pave Academy Charter School,,917-803-0380,76 Lorraine St,11231,1,36,982340,184973,cwestendarp@paveacademy.org,,5,9,3,84K651,40.674385,-74.006886,6,38,53,3338801.0,3005800016.0,Carroll Gardens-Columbia Street-Red Hook                                   
210,K676,DOE,K,Red Hook Neighborhood School,,718-330-2238,27 Huntington St,11231,1,36,982876,186241,rbrown24@schools.nyc.gov,http://schools.nyc.gov/schoolportals/15/k676,2,3,3,15K676,40.677564000000004,-74.005166,6,38,59,3008342.0,3005250001.0,Carroll Gardens-Columbia Street-Red Hook                                   
211,K677,DOE,K,East New York Elementary School Of Excellence,,718-272-6075,605 Shepherd Ave,11208,1,30,1017717,183231,jtouzin@schools.nyc.gov,http://schools.nyc.gov/schoolportals/19/k677,2,7,3,19K677,40.669387,-73.879614,5,42,1164,3090219.0,3040690001.0,East New York                                                              
212,K702,CHARTER,K,Community Partnership Charter School Pre - Kindergarten,,718-399-3824,241 Emerson Pl,11205,1,18,994928,191061,info@cpcsschool.org,http://cpcsschool.org/,5,9,3,13K702,40.690202,-73.961478,2,35,193,3055378.0,3019330102.0,Clinton Hill                                                               
213,K705,DOE,K,Brooklyn Arts And Science Elementary School,<P> <Strong>Note:</strong>  Students who are English Language Learners and/or are in the child welfare system will have priority for 20% of seats. If the applicant is in the child welfare system please contact the school directly.</P>,718-230-0851,443 St Marks Ave,11238,1,72,995436,185886,brooklynartselementary@gmail.com,http://schools.nyc.gov/schoolportals/17/k705,2,3,3,17K705,40.676774,-73.96005799999999,8,35,305,3028281.0,3011480050.0,Crown Heights North                                                        
214,K748,DOE,K,P.S. 748 Brooklyn School For Global Scholars,,718-382-3130,1664 Benson Ave,11214,1,36,982228,160397,dsalerno4@schools.nyc.gov,http://ps748scholars.com,2,3,3,20K748,40.607234000000005,-74.007199,11,43,180,3167623.0,3063990026.0,Bath Beach                                                                 
215,K770,DOE,K,P.S. 770 New American Academy,,718-221-5837,60 East 94 St,11212,1,36,1004164,181298,jsaratovsky@thenewamericanacademy.org,http://schools.nyc.gov/schoolportals/17/k770,3,3,1,17K770,40.663559,-73.926959,17,41,882,3323072.0,3045950015.0,Rugby-Remsen Village                                                       
216,KAAE,NYCEEC,K,Adelphi Academy Of Brooklyn,,718-238-3308,8515 Rdg Blvd,11209,1,36,975045,166820,romanosi@adelphinyc.org,,5,9,3,20KAAE,40.624746,-74.03347,10,43,62,3328998.0,3060330001.0,Bay Ridge                                                                  
217,KAAS,NYCEEC,K,Associated Beth Rivkah School - UPK,,718-735-0400,470 Lefferts Ave,11225,3,80,999262,180626,stenenbaum@bethrivkah.edu,,5,9,3,17KAAS,40.662647,-73.945959,9,40,806,3035454.0,3013310019.0,Prospect Lefferts Gardens-Wingate                                          
218,KABF,NYCEEC,K,Bais Yaakov Academy UPK,,718-339-4747,1213 Elm Ave,11230,3,60,994745,164146,mlevin@gamlacollege.com,,5,9,3,21KABF,40.616988,-73.962457,14,48,768,3180784.0,3067410012.0,Midwood                                                                    
219,KABG,NYCEEC,K,Yeshiva Jesode Hatorah,,718-302-7500,563 Bedford Ave,11211,3,34,994502,196556,vien@thejnet.com,,4,7,1,14KABG,40.704135,-73.96112,1,33,535,3060116.0,3021930007.0,Williamsburg                                                               
220,KABN,NYCEEC,K,Barkai Yeshivah,,718-998-7473,5302 21 Ave,11204,3,40,990677,165898,bmorano@barkaionline.org,,5,9,3,21KABN,40.622029,-73.976845,12,44,464,3131092.0,3054951138.0,Borough Park                                                               
221,KABP,NYCEEC,K,Battalion Christian Academy,,718-774-5447,780 Schenectady Ave,11203,1,36,1002608,177682,alcockfiled@gmail.com,,3,8,1,18KABP,40.654351,-73.9336,17,41,870,3108499.0,3048670118.0,East Flatbush-Farragut                                                     
222,KABU,NYCEEC,K,Be - Er Hagolah Institutes,,718-642-6800,671 Louisiana Ave,11239,1,72,1016772,174547,bhagolah@aol.com,http://beerhagolah.org,3,3,1,19KABU,40.645638,-73.883643,5,42,105804,3339160.0,3044520080.0,Starrett City                                                              
223,KACI,NYCEEC,K,Bambi Day Care,,718-645-7010,1981 Homecrest Ave,11229,1,60,995495,158326,info@bambiacademy.com,http://bambidaycarecenter.com,3,3,1,21KACI,40.601446,-73.959725,15,48,556,3196710.0,3072910134.0,Homecrest                                                                  
224,KADG,NYCEEC,K,Bnos Menachem,,718-493-1100,739 East New York Ave,11203,3,18,1001380,180668,bnos.menachem@verizon.net,http://bnosmenachem.org,1,8,1,17KADG,40.662347,-73.938285,9,41,87401,3038483.0,3014280047.0,Prospect Lefferts Gardens-Wingate                                          
225,KADN,NYCEEC,K,Zion Day Care,<p><strong>Alert</strong>: Program may have income or other eligibility requirements. Contact for more information.</p>,718-438-2862,5000 14th Ave,11219,1,40,986785,169923,Zion.daycare@thejnet.com,,2,6,2,20KADN,40.633057,-73.990593,12,44,236,3138079.0,3056490038.0,Borough Park                                                               
226,KADP,NYCEEC,K,Gan DCC,<p><strong>Alert</strong>: Program may have income or other eligibility requirements. Contact for more information.</p>,718-435-2812,4206 - 10 15th Ave,11219,1,47,988683,171061,gandaycare@verizon.net,,5,9,3,20KADP,40.636182,-73.983758,12,44,232,3135986.0,3056000037.0,Borough Park                                                               
227,KADW,NYCEEC,K,Brooklyn Amity School,,718-891-6100,3867 Shr Pkwy,11235,1,30,1003138,153054,kidschoicepreschool@verizon.net,,5,9,3,22KADW,40.586329,-73.93226,15,48,598,3247917.0,3088060017.0,Sheepshead Bay-Gerritsen Beach-Manhattan Beach                             
228,KAET,NYCEEC,K,Dimitrios & Georgia Kaloidis P.S. Of Holy Cross Goc,,718-836-8096,8502 Rdg Blvd,11209,1,72,974876,166906,,http://dgkschool.com,2,3,2,20KAET,40.624826,-74.033459,10,43,50,3153048.0,3060320037.0,Bay Ridge                                                                  
229,KAFB,NYCEEC,K,Epiphany Lutheran School,,718-773-7200,721 Lincoln Pl,11216,1,30,997555,183743,Crafton@foch.biz,,7,3,1,17KAFB,40.670862,-73.952347,8,35,31702,3032263.0,3012540063.0,Crown Heights North                                                        
230,KAFO,NYCEEC,K,Good Shepherd School,,718-339-2745,1943 Brown St,11229,1,36,1000793,159493,princpap@aol.com,,7,3,1,22KAFO,40.604209999999995,-73.940629,15,46,566,3345248.0,3073110001.0,Madison                                                                    
231,KAFZ,NYCEEC,K,HIDEC,,718-377-7507,1401 Ave I,11230,1,48,994623,167956,hidec@verizon.net,,3,3,2,21KAFZ,40.627493,-73.962638,14,45,530,3179326.0,3066980051.0,Midwood                                                                    
232,KAHA,NYCEEC,K,Masores Bais Yaakov,,718-692-2424,1395 Ocean Ave,11230,3,60,996304,168211,g.celnik@masores.com,,5,9,3,22KAHA,40.628339000000004,-73.95688100000001,14,45,772,3206224.0,3075660006.0,Flatbush                                                                   
233,KAHX,NYCEEC,K,Gateway City Academy,,718-921-3737,257 Bay Rdg Ave,11220,1,143,976810,171036,gca@gatewaycityacademy.net,http://gatewaycityacademy.net,5,9,3,20KAHX,40.636018,-74.026914,10,43,68,3145159.0,3058620060.0,Bay Ridge                                                                  
234,KAIN,NYCEEC,K,Phyl's Academy,,718-469-9400,3520 Tilden Ave,11203,1,144,999883,174969,info@phylsacademyny.com,http://phylsacademyny.com,5,3,1,17KAIN,40.647079999999995,-73.944058,17,45,854,3110600.0,3049200006.0,East Flatbush-Farragut                                                     
235,KAIT,NYCEEC,K,Prospect Park Yeshiva,,718-376-5959,1784 East 17 St,11229,3,36,996376,160135,dkelman@bloppy.org,,5,9,3,22KAIT,40.606652000000004,-73.955962,15,48,552,3000000.0,3067990046.0,Madison                                                                    
236,KAJD,NYCEEC,K,St. Anselm Catholic Academy,,718-745-7643,365 83 St,11209,1,72,976536,167089,jmckeon@diobrook.org,http://www.sacany.org/,5,9,3,20KAJD,40.625296999999996,-74.028499,10,43,62,3152079.0,3060070053.0,Bay Ridge                                                                  
237,KAJE,NYCEEC,K,St. Athanasius School,,718-236-4791,6120 Bay Pkwy,11204,1,60,989910,163686,dianecompetello@gmail.com,http://stathanasiusschool.org,5,9,3,21KAJE,40.615966,-73.979239,11,47,246,3132669.0,3055290034.0,Borough Park                                                               
238,KAJR,NYCEEC,K,Heartshare Human Services Of New York,,718-238-4637,1825 Bath Ave,11214,1,40,982809,159201,jill.fitzgerald@heartshare.org,http://heartshare.org,2,8,2,20KAJR,40.603405,-74.005247,11,43,280,3336446.0,3064040029.0,Bath Beach                                                                 
239,KAJT,NYCEEC,K,St. Frances Cabrini Catholic Academy,,718-386-9277,181 Suydam St,11221,1,72,1004723,194266,wanda.marty@sfc-ca.net,http://sfc-ca.com,2,4,1,32KAJT,40.699896,-73.92591999999999,4,34,423,3072916.0,3032080041.0,Bushwick South                                                             
240,KAJW,NYCEEC,K,St. Francis Of Assisi,,718-778-3700,400 Lincoln Rd,11225,1,36,998382,180267,c14upk@yahoo.com,http://sfabrooklyn.org,5,3,1,17KAJW,40.661638,-73.94944100000001,9,40,804,3106502.0,3047910023.0,Prospect Lefferts Gardens-Wingate                                          
241,KAKF,NYCEEC,K,St. Mark School,,718-332-9304,2602 East 19th St,11235,1,36,997939,153520,jvok@smsonthebay.com,http://smsonthebay.com,5,3,1,22KAKF,40.588254,-73.950523,15,48,600,3205007.0,3074630005.0,Sheepshead Bay-Gerritsen Beach-Manhattan Beach                             
242,KAKI,NYCEEC,K,St. Peter Catholic Academy,,718-372-0025,8401 23rd Ave,11214,1,72,986936,158403,smmjsfc@aol.com,http://stpeteracademy-brooklyn.org/,5,9,3,21KAKI,40.601656,-73.990468,11,47,298,3329173.0,3068550001.0,Bensonhurst East                                                           
243,KALL,NYCEEC,K,St. Gregory The Great Catholic Academy,,917-972-9673,2520 Church Ave,11226,1,36,997022,176227,sgg991@yahoo.com,,5,9,3,17KALL,40.650587,-73.954261,17,40,794,3338999.0,3051040056.0,Erasmus                                                                    
244,KALT,NYCEEC,K,"Cheder, The",,718-252-6333,129 Elmwood Ave,11230,1,40,991104,167799,cheder_upk@netzero.net,,3,3,2,21KALT,40.627087,-73.975748,12,44,46201,3398191.0,3064990058.0,Flatbush                                                                   
245,KANO,NYCEEC,K,Yeshivas Boyan Tifereth Mordechai Shlomo,,718-435-6060,1205 44 St,11219,1,30,986737,172123,boyan@verizon.net,,5,9,3,15KANO,40.638925,-73.991007,12,39,224,3136132.0,3056040001.0,Borough Park                                                               
246,KANX,NYCEEC,K,Yeshiva Karlin Stolin,,718-232-7800,1801 55th St,11204,1,36,988679,166928,dstein@yks.edu,,3,6,2,21KANX,40.624695,-73.98405600000001,12,44,470,3130561.0,3054870001.0,Borough Park                                                               
247,KBKQ,NYCEEC,K,Parkside ECDC,,718-722-6236,525 Parkside Ave,11226,1,40,996498,178302,sandrahuntsmith@yahoo.com,,5,9,3,17KBKQ,40.655937,-73.955515,9,40,802,3115846.0,3050490001.0,Prospect Lefferts Gardens-Wingate                                          
248,KAOA,NYCEEC,K,Yeshiva Headstart 40th Street,<p><strong>Alert</strong>: Program may have income or other eligibility requirements. Contact for more information.</p>,718-633-2232,1402 40th St,11218,1,16,988545,171886,mkramer@ykypupa.org,,5,7,1,20KAOA,40.63851,-73.984316,12,39,230,3124884.0,3053450006.0,Borough Park                                                               
249,KAOP,NYCEEC,K,Yeshivah Of Flatbush,,718-377-4040,919 East 10 St,11230,3,110,993607,167603,agellman@flatbush.org,,5,9,3,21KAOP,40.62638,-73.966486,12,44,456,3170990.0,3065230001.0,Midwood                                                                    
250,KAOV,NYCEEC,K,Yeshiva Ohr Shraga,,718-252-7777,1102 Ave L,11230,1,28,994249,165097,generaloffice@ohrshraga.org,http://ohrshraga.org,3,3,1,21KAOV,40.619994,-73.964101,14,44,768,3329237.0,3067310001.0,Midwood                                                                    
251,KAPB,NYCEEC,K,Yeshivat Shaare Torah,,718-437-6101,222 Ocean Pkwy,11218,3,60,991215,174025,chavys2003@yahoo.com,,8,3,1,15KAPB,40.64439,-73.974325,12,39,494,3124704.0,3053380051.0,Kensington-Ocean Parkway                                                   
252,KAPM,NYCEEC,K,Yeshiva Toras Emes,,718-375-0900,1904 Ave N,11230,3,18,996604,163668,yetoem@aol.com,,5,9,3,22KAPM,40.616053,-73.95557,14,48,546,3398189.0,3067570001.0,Midwood                                                                    
253,KAPR,NYCEEC,K,Talmud Torah Crown Heights Yeshivah,,718-444-5800,6363 Ave U,11234,1,40,1008464,163862,chyjoan@yahoo.com,,3,3,2,22KAPR,40.616209000000005,-73.912697,18,46,698,3236983.0,3084060035.0,Georgetown-Marine Park-Bergen Beach-Mill Basin                             
254,KARQ,NYCEEC,K,Parkway School,,718-346-0369,5566 Kings Hwy,11203,1,54,1005130,175370,gkgrant@aol.com,http://parkwayschool.org,5,9,3,18KARQ,40.648112,-73.924338,17,45,946,3104546.0,3047400061.0,Rugby-Remsen Village                                                       
255,KARS,NYCEEC,K,Action Nursery,<p><strong>Alert</strong>: Program may have income or other eligibility requirements. Contact for more information.</p>,718-854-7777,1019 46th St,11219,1,14,985283,172619,actionnursery@thejnet.com,,3,7,2,15KARS,40.640388,-73.99645100000001,12,39,112,3136635.0,3056140042.0,Sunset Park East                                                           
256,KASC,NYCEEC,K,Brevoort Children's Center,<p><strong>Alert</strong>: Program may have income or other eligibility requirements. Contact for more information.</p>,718-778-1069,250 Ralph Ave,11233,1,19,1005435,187319,hlareche@bksny.org,http://bksny.org,3,7,1,16KASC,40.68104,-73.9224,3,41,381,3325169.0,3016880001.0,Crown Heights North                                                        
257,KASG,NYCEEC,K,Edwards L Cleaveland,<p><strong>Alert</strong>: Program may have income or other eligibility requirements. Contact for more information.</p>,718-623-9803,1185 Park Pl,11213,1,26,1001328,184557,jmatison@bksny.org,http://bksny.org,3,7,2,17KASG,40.672793,-73.93839100000001,8,36,343,3324613.0,3013520080.0,Crown Heights North                                                        
258,KASI,NYCEEC,K,Cortelyou ECC,,718-282-6077,386 Marlborough Rd,11226,1,36,994095,172679,sfrancis@mycecc.com,,5,9,3,22KASI,40.640589,-73.964321,14,40,520,3118681.0,3051570013.0,Flatbush                                                                   
259,KASJ,NYCEEC,K,BCS Duffield Children's Center,<p><strong>Alert</strong>: Program may have income or other eligibility requirements. Contact for more information.</p>,718-522-5296,101 Fleet Pl,11201,1,93,989371,191718,ilopez@wearebcs.org,http://wearebcs.org,3,3,1,13KASJ,40.692598,-73.98176099999999,2,35,31,3058258.0,3020610100.0,Fort Greene                                                                
260,KASR,NYCEEC,K,Glennwood Avenue Head Start,<p><strong>Alert</strong>: Program may have income or other eligibility requirements. Contact for more information.</p>,718-859-7720,3017 Glenwood Rd,11210,1,69,998938,170343,glenwood3017@gmail.com,,3,3,1,22KASR,40.634021999999995,-73.947517,17,45,786,3113939.0,3050050001.0,Flatbush                                                                   
261,KASZ,NYCEEC,K,East Midwood Hebrew Day School,,718-253-1555,1256 East 21st St,11210,1,34,996742,166085,regina2@emhds.org,http://emhds.org,3,3,2,22KASZ,40.622596,-73.954755,14,45,760,3208324.0,3076200057.0,Midwood                                                                    
262,KATG,NYCEEC,K,Ahrc Francis Of Paola ELC,,718-782-1462,201 Conselyea St,11211,1,6,1000019,199974,Teresa.DelPriore@ahrcnyc.org,http://schools.ahrcnyc.org,5,3,1,14KATG,40.715378,-73.943001,1,34,497,3070199.0,3028920007.0,East Williamsburg                                                          
263,KATR,NYCEEC,K,Warbasse Nursery School,,718-266-5585,2785 West 5th St,11224,1,16,992605,150820,lauraok@warbassenurseryschool.com,http://warbassenurseryschool.com,5,7,1,21KATR,40.5804,-73.971636,13,47,35601,3320736.0,3072530001.0,West Brighton                                                              
264,KATZ,NYCEEC,K,Neptune Avenue Head Start,<p><strong>Alert</strong>: Program may have income or other eligibility requirements. Contact for more information.</p>,718-332-8524,293 Neptune Ave,11235,1,110,994173,151073,neptune293@gmail.com,,3,3,1,21KATZ,40.581078999999995,-73.96413299999999,13,48,366,3196391.0,3072620017.0,Brighton Beach                                                             
265,KAUK,NYCEEC,K,NYL / WOC Midwood,,718-382-1060,1520 East 13th St,11230,1,16,995048,162397,Jessica.Molina@yai.org,http://yai.org/agencies/nyl,5,3,2,21KAUK,40.612044,-73.960799,14,48,542,3329249.0,3067590001.0,Midwood                                                                    
266,KBIZ,NYCEEC,K,Shalva UPK I,,718-438-0060,1363 50 St,11219,1,60,986780,170117,YYS@BobovSchool.com,,5,9,3,20KBIZ,40.633685,-73.991389,12,44,236,3137765.0,3056420048.0,Borough Park                                                               
267,KAVQ,NYCEEC,K,Hebrew Educational Society,<p><strong>Alert</strong>: Program may have income or other eligibility requirements. Contact for more information.</p>,718-241-3000,9502 Seaview Ave,11236,1,63,1014511,169772,Alessandra@thehes.org,http://thehes.org,3,3,1,18KAVQ,40.632808000000004,-73.89121999999999,18,46,1028,3235056.0,3083180008.0,Canarsie                                                                   
268,KAWC,NYCEEC,K,"Hanover Place CCC, LLC",,347-916-0333,15 Hanover Pl,11201,1,160,989158,190182,rcacere@hanoverchildcare.com,http://hanoverchildcare.com,3,2,1,15KAWC,40.688827,-73.982454,2,33,37,3000462.0,3001610003.0,DUMBO-Vinegar Hill-Downtown Brooklyn-Boerum Hill                           
269,KAWQ,NYCEEC,K,Macademy,,718-221-5566,1313 Un St,11225,1,18,998505,183018,qkmacademy@aol.com,http://macademytech.org,5,8,1,17KAWQ,40.668857,-73.948787,9,35,319,3032953.0,3012690054.0,Crown Heights South                                                        
270,KAWX,NYCEEC,K,PAL World Of Creative Experiences Head Start,<p><strong>Alert</strong>: Program may have income or other eligibility requirements. Contact for more information.</p>,718-345-5219,280 Livonia Ave,11212,1,117,1010003,180674,dwhite@palnyc.org,http://palnyc.org,3,7,1,23KAWX,40.662765,-73.907449,16,42,918,3326581.0,3035900011.0,Brownsville                                                                
271,KAXC,NYCEEC,K,Bishop Sexton,<p><strong>Alert</strong>: Program may have income or other eligibility requirements. Contact for more information.</p>,718-778-0292,933 Herkimer St,11233,1,50,1005748,186420,aalleyne@stmarksheadstart.org,http://stmarksheadstart.org,3,7,2,16KAXC,40.678169,-73.92249699999999,3,41,299,3329595.0,3017040025.0,Crown Heights North                                                        
272,KAXU,NYCEEC,K,University Settlement Children's Corner,<p><strong>Alert</strong>: Program may have income or other eligibility requirements. Contact for more information.</p>,212-453-4595,565 Livonia Ave,11207,1,68,1013032,181436,kcohen@universitysettlement.org,http://universitysettlement.org,2,3,2,19KAXU,40.664415999999996,-73.89635200000001,5,42,1130,3084621.0,3038030046.0,East New York (Pennsylvania Ave)                                           
273,KAXW,NYCEEC,K,"Highlights Academy, Inc.",,718-953-5555,1688 President St,11213,1,40,1003224,182225,highlightsacademy@yahoo.com,http://highlightsacademyinc.com,3,8,1,17KAXW,40.667031,-73.931702,9,35,351,3037942.0,3014080037.0,Crown Heights North                                                        
274,KAYF,NYCEEC,K,PAL La Puerta Abierta,<p><strong>Alert</strong>: Program may have income or other eligibility requirements. Contact for more information.</p>,718-373-1100,3001 West 37 St,11224,1,30,983647,147886,rbhattacharjee@palnyc.org,http://palnyc.org,2,6,1,21KAYF,40.573177,-74.002509,13,47,340,3189617.0,3070650001.0,Seagate-Coney Island                                                       
275,KAYL,NYCEEC,K,"Puerto Rican Family Institute, Inc.",,718-388-6060,185 Marcy Ave,11211,4,25,995872,197144,lisanchez@prfi.org,,3,2,1,14KAYL,40.707729,-73.958337,1,33,529,3059752.0,3021510006.0,Williamsburg                                                               
276,KAYS,NYCEEC,K,Hawthorne Corners DCC,<p><strong>Alert</strong>: Program may have income or other eligibility requirements. Contact for more information.</p>,718-282-7200,1950 Bedford Ave,11225,1,15,996233,178733,cornersdcc@verizon.net,,3,6,1,17KAYS,40.657340000000005,-73.956559,9,40,79601,3115676.0,3050450051.0,Prospect Lefferts Gardens-Wingate                                          
277,KAYU,NYCEEC,K,"Bambi DCC, Inc.",,718-771-1603,300 Rogers Ave,11225,1,58,997056,181950,bambicare@gmail.com,http://bambidcc.com,3,7,1,17KAYU,40.666084000000005,-73.953652,9,35,323,3034151.0,3012950145.0,Crown Heights South                                                        
278,KAZC,NYCEEC,K,Talmud Torah Ohr Moshe,,718-234-6100,1774 58th St,11204,1,20,988008,166331,ttohrmoshe@gmail.com,,5,9,3,20KAZC,40.623606,-73.986815,12,44,244,3131451.0,3055040037.0,Borough Park                                                               
279,KAZM,NYCEEC,K,St. Francis Xavier,,718-857-2559,763 President St,11215,1,36,990715,184947,taylordorothy763@yahoo.com,http://sfxsparkslope.org,7,3,1,15KAZM,40.674465000000005,-73.977497,6,39,157,3020189.0,3009570017.0,Park Slope-Gowanus                                                         
280,KAZQ,NYCEEC,K,Bedford Stuyvesant ECDC,,718-455-5565,281 Stuyvesant Ave,11221,1,18,1003046,188799,spiveys@bsecdc.org,,5,9,3,16KAZQ,40.684933,-73.932441,3,36,295,3045801.0,3016560004.0,Stuyvesant Heights                                                         
281,KAZT,NYCEEC,K,Bushwick United HDFC 1,<p><strong>Alert</strong>: Program may have income or other eligibility requirements. Contact for more information.</p>,718-443-0134,136 Stanhope St,11221,1,65,1005666,193610,IRFANAK@BUSHWICKUNITED.ORG,http://bushwickunited.org,3,7,2,32KAZT,40.698099,-73.922976,4,37,421,3392942.0,3032660020.0,Bushwick South                                                             
282,KAZZ,NYCEEC,K,Cornerstone DCC,<p><strong>Alert</strong>: Program may have income or other eligibility requirements. Contact for more information.</p>,718-574-8300,289 Lewis Ave,11221,1,20,1002163,189190,cornerstonedcc@aol.com,,3,3,1,16KAZZ,40.68592,-73.935624,3,36,293,3045189.0,3016450076.0,Stuyvesant Heights                                                         
283,KBAE,NYCEEC,K,Block Institute,,347-649-3601,133 27th Ave,11214,1,32,987750,154384,nwu@blockinstitute.org,http://blockinstitute.org,3,3,2,21KBAE,40.590852000000005,-73.987369,13,47,306,3186885.0,3069000011.0,Gravesend                                                                  
284,KBAI,NYCEEC,K,Guild For Exceptional Children,,718-435-2554,1273 57 St,11219,1,32,985107,169091,alice@gecbklyn.org,http://gecbklyn.org,2,3,2,20KBAI,40.630998,-73.997511,12,44,216,3140076.0,3056900042.0,Borough Park                                                               
285,KBAW,NYCEEC,K,Bet Yaakov Ohr Sarah,,718-627-8758,1123 Ave N,11230,2,55,994613,163502,tsena@orotsarah.com,,5,9,3,21KBAW,40.615246,-73.96305600000001,14,48,768,3180770.0,3067400049.0,Midwood                                                                    
286,KBAY,NYCEEC,K,Bet Yaakov Ateret Torah,,718-375-7100,2166 Coney Is Ave,11223,3,40,994746,159360,psoffice@ateret.net,,4,3,1,21KBAY,40.6042,-73.96165400000001,15,48,416,3394079.0,3066850034.0,Homecrest                                                                  
287,KBAZ,NYCEEC,K,Nat Azarow Children's Center,<p><strong>Alert</strong>: Program may have income or other eligibility requirements. Contact for more information.</p>,718-346-0924,232 Powell St,11212,1,40,1010873,182961,jcroskey@bksny.org,http://bksny.org,3,7,1,23KBAZ,40.668946000000005,-73.903789,16,41,908,3084013.0,3037450001.0,Brownsville                                                                
288,KBBB,NYCEEC,K,Bambi Day Care IV,,718-332-8656,405 81st St,11209,1,73,976957,167477,info@bambiacademy.com,http://bambidaycare.com,3,7,1,20KBBB,40.626187,-74.02632,10,43,138,3328847.0,3059890001.0,Bay Ridge                                                                  
289,KBBE,NYCEEC,K,PAL Carey Gardens,<p><strong>Alert</strong>: Program may have income or other eligibility requirements. Contact for more information.</p>,718-372-4044,2964 West 23rd St,11224,1,21,987018,148546,Kchase@palnyc.org,http://palnyc.org,3,7,1,21KBBE,40.574699,-73.989827,13,47,326,3321840.0,3070560014.0,Seagate-Coney Island                                                       
290,KBBL,NYCEEC,K,St. Peter's Preschool,,718-647-1014,109 Highland Pl,11208,1,83,1017187,188019,claradv@aol.com,,2,2,1,19KBBL,40.682594,-73.881465,5,37,1174,3087344.0,3039300032.0,Cypress Hills-City Line                                                    
291,KBBO,NYCEEC,K,Khyle Brenaj Kiddie Daycare Inc.,,718-896-8108,9718 Flatlands Ave,11236,1,20,1011999,173864,parich@optonline.net,,5,9,3,18KBBO,40.643812,-73.900416,18,46,988,3230136.0,3082050042.0,Canarsie                                                                   
292,KBBY,NYCEEC,K,Be Above #27,<p><strong>Alert</strong>: Program may have income or other eligibility requirements. Contact for more information.</p>,347-997-2488,779 East 49 St,11203,1,57,1003622,173410,beabove49street@yahoo.com,,3,8,1,18KBBY,40.64264,-73.930408,17,45,840,3105709.0,3047700050.0,East Flatbush-Farragut                                                     
293,KBCV,NYCEEC,K,"Tabernacle Church Of God DCC, Inc.",,718-638-3209,34 Kosciuszko St,11205,3,60,997107,190731,tabernacleupk@verizon.net,,3,7,1,13KBCV,40.690353,-73.953678,3,36,241,3049719.0,3017830023.0,Bedford                                                                    
294,KBCZ,NYCEEC,K,Pine Street Day Care,,718-235-1150,872 - 874 Cres St,11208,2,78,1020888,181987,pinestreetdaycarecenter@verizon.net,,5,9,3,19KBCZ,40.666179,-73.867696,5,42,1220,3000000.0,3045070017.0,East New York                                                              
295,KBDA,NYCEEC,K,Urban Strategies 1,<p><strong>Alert</strong>: Program may have income or other eligibility requirements. Contact for more information.</p>,718-235-6151,1091 Sutter Ave,11208,1,119,1018065,184170,usheadstart1@aol.com,,3,7,2,19KBDA,40.671892,-73.878197,5,42,1194,3089620.0,3040390001.0,East New York                                                              
296,KBDC,NYCEEC,K,Cypress Hills CCC,<p><strong>Alert</strong>: Program may have income or other eligibility requirements. Contact for more information.</p>,718-647-5005,108 Pne St,11208,1,38,1019317,188487,Jeromebass@yahoo.com,http://cypresshillschildcare.org,3,7,1,19KBDC,40.68407,-73.873386,5,37,117602,3327214.0,3041290008.0,Cypress Hills-City Line                                                    
297,KBDJ,NYCEEC,K,Cortelyou Academy,,718-421-9581,2739 Bedford Ave,11210,1,18,997245,170999,sfrancis@mycecc.com,http://mycecc.com,5,9,3,22KBDJ,40.636256,-73.9535,14,45,770,3120796.0,3052250002.0,Flatbush                                                                   
298,KBDN,NYCEEC,K,"Raven's ECC, Inc.",,718-927-2316,1102 East 92nd St,11236,1,69,1010240,173314,info@ravensschool.org,http://ravensschool.org,3,2,1,18KBDN,40.6424,-73.906147,18,46,964,3229538.0,3081790076.0,Canarsie                                                                   
299,KBDT,NYCEEC,K,Mary Bobb Learning Academy,,718-604-4400,1187 Nostrand Ave,11225,1,91,998081,179139,MaryBobbLearningAcademy@gmail.com,http://marybobb.com,3,2,1,17KBDT,40.65835,-73.95036999999999,9,40,804,3107261.0,3048140007.0,Prospect Lefferts Gardens-Wingate                                          
300,KBDX,NYCEEC,K,BAbove Worldwide Institute - Tomer Devorah,<p><strong>Alert</strong>: Program may have income or other eligibility requirements. Contact for more information.</p>,347-402-5734,4500 9 Ave,11220,1,30,984552,173372,cklein@babove.com,,3,5,1,15KBDX,40.642505,-73.998692,12,38,94,3337205.0,3007510048.0,Sunset Park East                                                           
301,KBEB,NYCEEC,K,New Life CDC 4,<p><strong>Alert</strong>: Program may have income or other eligibility requirements. Contact for more information.</p>,718-366-1668,1307 Greene Ave,11237,1,74,1006606,193748,lilibeth_1307@hotmail.com,,3,2,1,32KBEB,40.698371,-73.919235,4,37,431,3319570.0,3032870021.0,Bushwick North                                                             
302,KBEP,NYCEEC,K,Brooklyn Chinese American Assoc. Day Care,<p><strong>Alert</strong>: Program may have income or other eligibility requirements. Contact for more information.</p>,718-851-0869,713 43rd St,11232,1,93,983895,174718,acs@bca.net,http://bca.net,3,6,1,15KBEP,40.646062,-74.001308,7,38,92,3018327.0,3009247501.0,Sunset Park East                                                           
303,KBEQ,NYCEEC,K,Brooklyn Developmental Center,<p><strong>Alert</strong>: Program may have income or other eligibility requirements. Contact for more information.</p>,718-235-8800,888 Fountain Ave,11208,1,17,1021619,178530,shayswann@aol.com,,3,3,1,19KBEQ,40.656717,-73.86440999999999,5,42,1070,3327531.0,3045860300.0,East New York                                                              
304,KBES,NYCEEC,K,Bushwick United HDFC 6,<p><strong>Alert</strong>: Program may have income or other eligibility requirements. Contact for more information.</p>,718-453-5500,200 Central Ave,11221,1,64,1004804,193693,REGINAR@BUSHWICKUNITED.ORG,http://bushwickunited.org,3,2,1,32KBES,40.698397,-73.925727,4,34,423,3073408.0,3032280020.0,Bushwick South                                                             
305,KBEZ,NYCEEC,K,Friends Of Crown Heights Educational Center #11,<p><strong>Alert</strong>: Program may have income or other eligibility requirements. Contact for more information.</p>,929-234-5010,995 Carroll St,11225,1,57,996138,182583,Vgbenedio@foch.biz,http://fochdaycare.org,3,3,1,17KBEZ,40.66771,-73.95733100000001,9,35,325,3033470.0,3012800054.0,Crown Heights South                                                        
306,KBFC,NYCEEC,K,Shirley Chisholm CCC Site 4 Somers,<p><strong>Alert</strong>: Program may have income or other eligibility requirements. Contact for more information.</p>,718-498-6200,33 Somers St,11233,1,36,1008674,186600,shirleychisholmdcc4@live.com,,3,7,2,23KBFC,40.678664000000005,-73.91201600000001,16,41,371,3041852.0,3015380046.0,Ocean Hill                                                                 
307,KBFD,NYCEEC,K,St. Marks,<p><strong>Alert</strong>: Program may have income or other eligibility requirements. Contact for more information.</p>,718-287-7300,2017 Beverley Rd,11226,1,114,995491,174312,adenis@stmarksheadstart.org,http://stmarksheadstart.org,3,3,2,22KBFD,40.644890999999994,-73.959742,14,40,51001,3117629.0,3051240057.0,Flatbush                                                                   
308,KBFN,NYCEEC,K,Strong Place For Hope DCC - 2nd Street,<p><strong>Alert</strong>: Program may have income or other eligibility requirements. Contact for more information.</p>,718-499-0747,333 2nd St,11215,1,27,988821,184821,strongplaceforhope2@hotmail.com,http://strongplaceforhopedaycare.com,3,6,1,15KBFN,40.673788,-73.983568,6,39,135,3346912.0,3009690052.0,Park Slope-Gowanus                                                         
309,KBFQ,NYCEEC,K,St. Andrews CDC,<p><strong>Alert</strong>: Program may have income or other eligibility requirements. Contact for more information.</p>,718-492-9678,4917 Fourth Ave,11220,1,20,980895,174833,,http://lutheranhealthcare.org/main/standrewscommunitydaycare.aspx,2,7,1,15KBFQ,40.646876,-74.01214,7,38,78,3012910.0,3007830001.0,Sunset Park West                                                           
310,KBGB,NYCEEC,K,Traditional Educational Center,<p><strong>Alert</strong>: Program may have income or other eligibility requirements. Contact for more information.</p>,718-443-2577,1469b Broadway,11221,1,29,1006823,189849,traditional1469@verizon.net,,3,2,1,32KBGB,40.687556,-73.91863599999999,4,34,397,3393150.0,3033730007.0,Bushwick South                                                             
311,KBGC,NYCEEC,K,Yeled V'Yalda,,718-514-8930,1377 42nd St,11219,3,17,988159,171649,rherbst@yeled.org,http://yeled.org,6,6,1,20KBGC,40.638033,-73.98651,12,39,232,3135754.0,3055940046.0,Borough Park                                                               
312,KBGI,NYCEEC,K,Yeled V'Yalda 1257,,718-514-8712,1257 38th St,11218,3,110,988054,173072,mhorowitz@yeled.org,http://yeled.org,3,3,1,15KBGI,40.641793,-73.986693,12,39,226,3394062.0,3052950047.0,Borough Park                                                               
313,KBGJ,NYCEEC,K,Mevakshei Hashem,,718-435-8900,550 Ocean Pkwy,11226,1,36,991727,170485,pschiff@mevakshai.org,,7,6,1,20KBGJ,40.63492,-73.97251700000001,12,39,484,3127188.0,3053990032.0,Kensington-Ocean Parkway                                                   
314,KBGP,NYCEEC,K,Great Oaks Academy,,718-915-3015,4718 Farragut Rd,11203,1,54,1003385,171412,rayed@mohdc.com,http://mohdcsmartstart.com,5,9,3,18KBGP,40.637305,-73.931174,17,45,932,3327647.0,3047860005.0,East Flatbush-Farragut                                                     
315,KBGS,NYCEEC,K,Urban Strategies 5 - Georgia L Mcmurray ECDC,<p><strong>Alert</strong>: Program may have income or other eligibility requirements. Contact for more information.</p>,718-235-1215,675 Lincoln Ave,11208,1,40,1021389,184414,usdaycare3@optimum.net,http://childcarecenter.us,3,6,1,19KBGS,40.672675,-73.866436,5,42,1208,3095889.0,3042710005.0,East New York                                                              
316,KBGU,NYCEEC,K,New Life CDC 1,<p><strong>Alert</strong>: Program may have income or other eligibility requirements. Contact for more information.</p>,718-821-3432,295 Woodbine St,11237,1,65,1008316,192998,snewlife1@gmail.com,,3,7,1,32KBGU,40.696412,-73.912941,4,37,435,3076869.0,3033620055.0,Bushwick North                                                             
317,KBGY,NYCEEC,K,"Kreative Kare DCC, Inc.",,718-386-3242,292 Palmetto St,11237,1,20,1008189,193091,kreativekare@aol.com,,7,8,1,32KBGY,40.696805,-73.913702,4,37,435,3076842.0,3033620006.0,Bushwick North                                                             
318,KBIE,NYCEEC,K,All My Children Day Care Site 16,,718-493-1100,739 East New York Ave,11203,1,18,1001497,180679,ckratz@amcearlylearn.com,,3,6,1,17KBIE,40.662347,-73.938285,9,41,87401,3038483.0,3014280047.0,Prospect Lefferts Gardens-Wingate                                          
